[
    {
       "id":1,
       "c":"AMB",
       "sdp":"SDP007270",
       "times":"08:00:00",
       "days":"M-T-W-TH-F",
       "name":"VALADEZ ANA",
       "site":"EL CAJON PACE",
       "other":"",
       "full_address":"1056 CALLE AVE IMPERIAL BEACH CA 91932",
       "formatted_address":"1056 CALLA AVE, IMPERIAL BEACH, CA 91932, USA",
       "number":"1056",
       "street":"CALLA AVE",
       "city":"IMPERIAL BEACH",
       "state":"CA",
       "zip":"91932",
       "longitude":-117.1111015,
       "latitude":32.5857058,
       "spoken_languages": ["English"],
       "banned_ethnic_group":[
          
       ],
       "banned_drivers":[
          
       ],
       "prefered_driver": null,
       "unsafe_for_female_driver":0,
       "unsafe_for_male_driver":0,
        "bording_time":300,
       "constraints" : ["AMB"]
 
    },
    {
       "id":2,
       "c":"",
       "sdp":"SDP039312",
       "times":"08:00:00",
       "days":"M-T-W-TH-F",
       "name":"RODRIGUEZ ANGELINA",
       "site":"EL CAJON PACE",
       "other":"",
       "full_address":"1797 MEADOWOOD CT SY CA 92173",
       "formatted_address":"1797 MEADOWOOD CT, SAN YSIDRO, CA 92173, USA",
       "number":"1797",
       "street":"MEADOWOOD CT",
       "city":"SAN DIEGO",
       "state":"CA",
       "zip":"92173",
       "longitude":-117.0647665,
       "latitude":32.5637836,
       "spoken_languages": ["English"],
       "banned_ethnic_group":[
          
       ],
       "banned_drivers":[
          
       ],
       "prefered_driver": null,
       "unsafe_for_female_driver":0,
       "unsafe_for_male_driver":0,
        "bording_time":300,
       "constraints" : ["AMB"]
    },
    {
       "id":3,
       "c":"AMB",
       "sdp":"SDP522644",
       "times":"08:00:00",
       "days":"M/TH",
       "name":"OSUNA JUANA",
       "site":"EL CAJON PACE",
       "other":"",
       "full_address":"1251 2ND AVE CV CA 91910",
       "formatted_address":"1251 2ND AVE, CHULA VISTA, CA 91911, USA",
       "number":"1251",
       "street":"2ND AVE",
       "city":"CHULA VISTA",
       "state":"CA",
       "zip":"91911",
       "longitude":-117.0627437,
       "latitude":32.6095647,
       "spoken_languages": ["English"],
       "banned_ethnic_group":[
          
       ],
       "banned_drivers":[
          
       ],
       "prefered_driver": null,
       "unsafe_for_female_driver":0,
       "unsafe_for_male_driver":0,
        "bording_time":300,
       "constraints" : ["AMB"]
    },
    {
       "id":4,
       "c":"AMB",
       "sdp":"SDP151128",
       "times":"08:00:00",
       "days":"M-T-W-TH",
       "name":"CIBRIAN ALICIA",
       "site":"EL CAJON PACE",
       "other":"",
       "full_address":"3987 BATEMAN AVE SD CA 92154",
       "formatted_address":"3987 BATEMAN AVE, SAN DIEGO, CA 92154, USA",
       "number":"3987",
       "street":"BATEMAN AVE",
       "city":"SAN DIEGO",
       "state":"CA",
       "zip":"92154",
       "longitude":-117.0485377,
       "latitude":32.5772382,
       "spoken_languages": ["English"],
       "banned_ethnic_group":[
          
       ],
       "banned_drivers":[
          
       ],
       "prefered_driver": null,
       "unsafe_for_female_driver":0,
       "unsafe_for_male_driver":0,
        "bording_time":300,
       "constraints" : ["AMB"]
    },
    {
       "id":5,
       "c":"AMB",
       "sdp":"(SDP136230)",
       "times":"09:00:00",
       "days":"M-T-W-TH-F",
       "name":"GONZALEZ, ANGELA ",
       "site":"EL CAJON PACE",
       "other":"CBLA",
       "full_address":"3280 GLANCY DR. SAN YSIDRO, CA 92173",
       "formatted_address":"3280 GLANCY DR, SAN DIEGO, CA 92173, USA",
       "number":"3280",
       "street":"GLANCY DR",
       "city":"SAN DIEGO",
       "state":"CA",
       "zip":"92173",
       "longitude":-117.0537788,
       "latitude":32.5445659,
       "spoken_languages": ["English"],
       "banned_ethnic_group":[
          
       ],
       "banned_drivers":[
          
       ],
       "prefered_driver": null,
       "unsafe_for_female_driver":0,
       "unsafe_for_male_driver":0,
        "bording_time":300,
       "constraints" : ["AMB"]
    },
    {
       "id":6,
       "c":"",
       "sdp":"SDP298941",
       "times":"09:00:00",
       "days":"W",
       "name":"RODRIGUEZ, VIRGINIA",
       "site":"EL CAJON PACE",
       "other":"",
       "full_address":"2623 E PLAZA BLVD APT 207 NATIONAL CITY CA 91950",
       "formatted_address":"2623 E PLAZA BLVD, NATIONAL CITY, CA 91950, USA",
       "number":"2623",
       "street":"E PLAZA BLVD",
       "city":"NATIONAL CITY",
       "state":"CA",
       "zip":"91950",
       "longitude":-117.0783739,
       "latitude":32.6810993,
       "spoken_languages": ["English"],
       "banned_ethnic_group":[
          
       ],
       "banned_drivers":[
          
       ],
       "prefered_driver": null,
       "unsafe_for_female_driver":0,
       "unsafe_for_male_driver":0,
        "bording_time":300,
       "constraints" : ["AMB"]
    },
    {
       "id":7,
       "c":"",
       "sdp":"SDP001532",
       "times":"11:00:00",
       "days":"T-W-TH",
       "name":"REBOLLOSO SILVIA",
       "site":"EL CAJON PACE",
       "other":"",
       "full_address":"181 WILLOW RD SY CA 92173",
       "formatted_address":"181 WILLOW RD, SAN YSIDRO, CA 92173, USA",
       "number":"181",
       "street":"WILLOW RD",
       "city":"SAN DIEGO",
       "state":"CA",
       "zip":"92173",
       "longitude":-117.0426787,
       "latitude":32.5515944,
       "spoken_languages": ["English"],
       "banned_ethnic_group":[
          
       ],
       "banned_drivers":[
          
       ],
       "prefered_driver": null,
       "unsafe_for_female_driver":0,
       "unsafe_for_male_driver":0,
        "bording_time":300,
       "constraints" : ["AMB"]
    },
    {
       "id":8,
       "c":"",
       "sdp":"SDP000255",
       "times":"08:00:00",
       "days":"M-T-W-TH-F",
       "name":"ORTIZ JOSE",
       "site":"EL CAJON PACE",
       "other":"",
       "full_address":"221 E ONEIDA ST CV CA 91911",
       "formatted_address":"221 E ONEIDA ST, CHULA VISTA, CA 91911, USA",
       "number":"221",
       "street":"E ONEIDA ST",
       "city":"CHULA VISTA",
       "state":"CA",
       "zip":"91911",
       "longitude":-117.0464227,
       "latitude":32.6148208,
       "spoken_languages": ["English"],
       "banned_ethnic_group":[
          
       ],
       "banned_drivers":[
          
       ],
       "prefered_driver": null,
       "unsafe_for_female_driver":0,
       "unsafe_for_male_driver":0,
        "bording_time":300,
       "constraints" : ["AMB"]
    },
    {
       "id":9,
       "c":"",
       "sdp":"SDP000416",
       "times":"08:00:00",
       "days":"M-T-W-TH-F",
       "name":"MENDEZ, SABINO ",
       "site":"EL CAJON PACE",
       "other":"CBLA",
       "full_address":"204 W. SAN YSIDRO BLVD. #34 SAN YSIDRO, CA 92173",
       "formatted_address":"204 E SAN YSIDRO BLVD, SAN DIEGO, CA 92173, USA",
       "number":"204",
       "street":"E SAN YSIDRO BLVD",
       "city":"SAN DIEGO",
       "state":"CA",
       "zip":"92173",
       "longitude":-117.0422726,
       "latitude":32.5521008,
       "spoken_languages": ["English"],
       "banned_ethnic_group":[
          
       ],
       "banned_drivers":[
          
       ],
       "prefered_driver": null,
       "unsafe_for_female_driver":0,
       "unsafe_for_male_driver":0,
        "bording_time":300,
       "constraints" : ["AMB"]
    },
    {
       "id":10,
       "c":"",
       "sdp":"SDP003093",
       "times":"08:00:00",
       "days":"M-T-W-TH-F",
       "name":"SALDARRIAGA LUISA",
       "site":"CV",
       "other":"",
       "full_address":"1180 KOSTNER DR SAN DIEGO CA 92154",
       "formatted_address":"1180 KOSTNER DR, SAN DIEGO, CA 92154, USA",
       "number":"1180",
       "street":"KOSTNER DR",
       "city":"SAN DIEGO",
       "state":"CA",
       "zip":"92154",
       "longitude":-117.0438481,
       "latitude":32.575134,
       "spoken_languages": ["English"],
       "banned_ethnic_group":[
          
       ],
       "banned_drivers":[
          
       ],
       "prefered_driver": null,
       "unsafe_for_female_driver":0,
       "unsafe_for_male_driver":0,
        "bording_time":300,
       "constraints" : ["AMB"]
    },
    {
       "id":11,
       "c":"",
       "sdp":"SDP4033693",
       "times":"09:00:00",
       "days":"M-T-W-TH-F",
       "name":"AGUIRRE EULAULIO",
       "site":"CV",
       "other":"",
       "full_address":"607 BEYER WAY APT 204 SD CA 92154",
       "formatted_address":"607 BEYER WAY, SAN DIEGO, CA 92154, USA",
       "number":"607",
       "street":"BEYER WAY",
       "city":"SAN DIEGO",
       "state":"CA",
       "zip":"92154",
       "longitude":-117.0600865,
       "latitude":32.5853465,
       "spoken_languages": ["English"],
       "banned_ethnic_group":[
          
       ],
       "banned_drivers":[
          
       ],
       "prefered_driver": null,
       "unsafe_for_female_driver":0,
       "unsafe_for_male_driver":0,
        "bording_time":300,
       "constraints" : ["AMB"]
    },
    {
       "id":12,
       "c":"",
       "sdp":"SDP021764",
       "times":"09:00:00",
       "days":"M-T-W-TH-F",
       "name":"PARADA CEJA ELVIA",
       "site":"CV",
       "other":"",
       "full_address":"816 DOROTHY ST APT C CV CA 91911",
       "formatted_address":"816 DOROTHY ST, CHULA VISTA, CA 91911, USA",
       "number":"816",
       "street":"DOROTHY ST",
       "city":"CHULA VISTA",
       "state":"CA",
       "zip":"91911",
       "longitude":-117.0884869,
       "latitude":32.6008109,
       "spoken_languages": ["English"],
       "banned_ethnic_group":[
          
       ],
       "banned_drivers":[
          
       ],
       "prefered_driver": null,
       "unsafe_for_female_driver":0,
       "unsafe_for_male_driver":0,
        "bording_time":300,
       "constraints" : ["AMB"]
    },
    {
       "id":13,
       "c":"",
       "sdp":"SDP112947",
       "times":"09:00:00",
       "days":"M-W-TH-F",
       "name":"VILLALVA, JOSE ",
       "site":"CV",
       "other":"CBLA",
       "full_address":"731 G STREET SPC A-18 CHULA VISTA, CA 91910",
       "formatted_address":"731 G ST, CHULA VISTA, CA 91910, USA",
       "number":"731",
       "street":"G ST",
       "city":"CHULA VISTA",
       "state":"CA",
       "zip":"91910",
       "longitude":-117.0958301,
       "latitude":32.6343925,
       "spoken_languages": ["English"],
       "banned_ethnic_group":[
          
       ],
       "banned_drivers":[
          
       ],
       "prefered_driver": null,
       "unsafe_for_female_driver":0,
       "unsafe_for_male_driver":0,
        "bording_time":300,
       "constraints" : ["AMB"]
    },
    {
       "id":14,
       "c":"",
       "sdp":"SDP112952",
       "times":"09:00:00",
       "days":"W-TH",
       "name":"SALAZAR BLANCA",
       "site":"CV",
       "other":"",
       "full_address":"731 G STREET SPC A-18 CHULA VISTA, CA 91910",
       "formatted_address":"731 G ST, CHULA VISTA, CA 91910, USA",
       "number":"731",
       "street":"G ST",
       "city":"CHULA VISTA",
       "state":"CA",
       "zip":"91910",
       "longitude":-117.0958301,
       "latitude":32.6343925,
       "spoken_languages": ["English"],
       "banned_ethnic_group":[
          
       ],
       "banned_drivers":[
          
       ],
       "prefered_driver": null,
       "unsafe_for_female_driver":0,
       "unsafe_for_male_driver":0,
        "bording_time":300,
       "constraints" : ["AMB"]
    },
    {
       "id":15,
       "c":"",
       "sdp":"SDP000528",
       "times":"08:00:00",
       "days":"M-T-W-TH-F",
       "name":"GALVAN AGUSTIN",
       "site":"EL CAJON PACE",
       "other":1.0,
       "full_address":"1388 E PALOMAR ST SPT 10 CV CA 91913",
       "formatted_address":"1388 E PALOMAR ST, CHULA VISTA, CA 91913, USA",
       "number":"1388",
       "street":"E PALOMAR ST",
       "city":"CHULA VISTA",
       "state":"CA",
       "zip":"91913",
       "longitude":-116.9971304,
       "latitude":32.6233377,
       "spoken_languages": ["English"],
       "banned_ethnic_group":[
          
       ],
       "banned_drivers":[
          
       ],
       "prefered_driver": null,
       "unsafe_for_female_driver":0,
       "unsafe_for_male_driver":0,
        "bording_time":300,
       "constraints" : ["AMB"]
    },
    {
       "id":16,
       "c":"WHC",
       "sdp":"(SDP005364)",
       "times":"08:00:00",
       "days":"M-T-W-TH",
       "name":"GARCIA CORONADO, MARIA ",
       "site":"EL CAJON PACE",
       "other":"CBLA",
       "full_address":"1250 5TH AVENUE APT. 804 BUILDING #8 CHULA VISTA, CA 91911",
       "formatted_address":"1250 5TH AVE, CHULA VISTA, CA 91911, USA",
       "number":"1250",
       "street":"5TH AVE",
       "city":"CHULA VISTA",
       "state":"CA",
       "zip":"91911",
       "longitude":-117.0754864,
       "latitude":32.6061695,
       "spoken_languages": ["English"],
       "banned_ethnic_group":[
          
       ],
       "banned_drivers":[
          
       ],
       "prefered_driver": null,
       "unsafe_for_female_driver":0,
       "unsafe_for_male_driver":0,
        "bording_time":300,
       "constraints" : ["AMB"]
    },
    {
       "id":17,
       "c":"WHC",
       "sdp":"(SDP246827)",
       "times":"08:00:00",
       "days":"M-T-W-TH-F",
       "name":"SILVA VALENCIA, GUADALUPE ",
       "site":"EL CAJON PACE",
       "other":"CBLA",
       "full_address":"205 QUINTARD ST APT E19 CHULA VISTA , CA 91911",
       "formatted_address":"205 QUINTARD ST, CHULA VISTA, CA 91911, USA",
       "number":"205",
       "street":"QUINTARD ST",
       "city":"CHULA VISTA",
       "state":"CA",
       "zip":"91911",
       "longitude":-117.0628171,
       "latitude":32.6056324,
       "spoken_languages": ["English"],
       "banned_ethnic_group":[
          
       ],
       "banned_drivers":[
          
       ],
       "prefered_driver": null,
       "unsafe_for_female_driver":0,
       "unsafe_for_male_driver":0,
        "bording_time":300,
       "constraints" : ["AMB"]
    },
    {
       "id":18,
       "c":"",
       "sdp":"SDP466249",
       "times":"09:00:00",
       "days":"M-T-W-TH-F",
       "name":"VIZCAINO NEMORIA",
       "site":"EL CAJON PACE",
       "other":1.0,
       "full_address":"1481 RIDGELINE CT SD CA 92154",
       "formatted_address":"1481 RIDGELINE CT, SAN DIEGO, CA 92154, USA",
       "number":"1481",
       "street":"RIDGELINE CT",
       "city":"SAN DIEGO",
       "state":"CA",
       "zip":"92154",
       "longitude":-117.0315718,
       "latitude":32.5666041,
       "spoken_languages": ["English"],
       "banned_ethnic_group":[
          
       ],
       "banned_drivers":[
          
       ],
       "prefered_driver": null,
       "unsafe_for_female_driver":0,
       "unsafe_for_male_driver":0,
        "bording_time":300,
       "constraints" : ["AMB"]
    },
    {
       "id":19,
       "c":"WHC",
       "sdp":"SDP276732",
       "times":"09:00:00",
       "days":"M-T-W-TH-F",
       "name":"VAZQUEZ TOMAS D",
       "site":"EL CAJON PACE",
       "other":"",
       "full_address":"107 E SEAWARD SY CA 92173",
       "formatted_address":"107 E SEAWARD AVE, SAN DIEGO, CA 92173, USA",
       "number":"107",
       "street":"E SEAWARD AVE",
       "city":"SAN DIEGO",
       "state":"CA",
       "zip":"92173",
       "longitude":-117.0438914,
       "latitude":32.5571777,
       "spoken_languages": ["English"],
       "banned_ethnic_group":[
          
       ],
       "banned_drivers":[
          
       ],
       "prefered_driver": null,
       "unsafe_for_female_driver":0,
       "unsafe_for_male_driver":0,
        "bording_time":300,
       "constraints" : ["AMB"]
    },
    {
       "id":20,
       "c":"",
       "sdp":"SDP021846",
       "times":"09:00:00",
       "days":"M-T-W-TH-F",
       "name":"VALDIVIA PEREZ JOSE",
       "site":"EL CAJON PACE",
       "other":"",
       "full_address":"3786 SUNSET LN SY CA 92173",
       "formatted_address":"3786 SUNSET LN, SAN DIEGO, CA 92173, USA",
       "number":"3786",
       "street":"SUNSET LN",
       "city":"SAN DIEGO",
       "state":"CA",
       "zip":"92173",
       "longitude":-117.0519628,
       "latitude":32.5584667,
       "spoken_languages": ["English"],
       "banned_ethnic_group":[
          
       ],
       "banned_drivers":[
          
       ],
       "prefered_driver": null,
       "unsafe_for_female_driver":0,
       "unsafe_for_male_driver":0,
        "bording_time":300,
       "constraints" : ["AMB"]
    },
    {
       "id":21,
       "c":"",
       "sdp":"SDP286291",
       "times":"08:00:00",
       "days":"M-T-W-TH-F",
       "name":"OROZCO MARIA",
       "site":"EL CAJON PACE",
       "other":"",
       "full_address":"1915 AVENIDA DEL MEXICO #236 SD CA 92154",
       "formatted_address":"1915 AVENIDA DEL MEXICO, SAN DIEGO, CA 92154, USA",
       "number":"1915",
       "street":"AVENIDA DEL MEXICO",
       "city":"SAN DIEGO",
       "state":"CA",
       "zip":"92154",
       "longitude":-117.0923874,
       "latitude":32.5834888,
       "spoken_languages": ["English"],
       "banned_ethnic_group":[
          
       ],
       "banned_drivers":[
          
       ],
       "prefered_driver": null,
       "unsafe_for_female_driver":0,
       "unsafe_for_male_driver":0,
        "bording_time":300,
       "constraints" : ["AMB"]
    },
    {
       "id":22,
       "c":"",
       "sdp":"SDP018747",
       "times":"09:00:00",
       "days":"M-T-W-TH-F",
       "name":"ARISPE ANDRE",
       "site":"EL CAJON PACE",
       "other":"",
       "full_address":"3730 BEYER BLVD APT CSY CA 92173",
       "formatted_address":"3730 BEYER BLVD, SAN YSIDRO, CA 92173, USA",
       "number":"3730",
       "street":"BEYER BLVD",
       "city":"SAN DIEGO",
       "state":"CA",
       "zip":"92173",
       "longitude":-117.0531352,
       "latitude":32.5613655,
       "spoken_languages": ["English"],
       "banned_ethnic_group":[
          
       ],
       "banned_drivers":[
          
       ],
       "prefered_driver": null,
       "unsafe_for_female_driver":0,
       "unsafe_for_male_driver":0,
        "bording_time":300,
       "constraints" : ["AMB"]
    },
    {
       "id":23,
       "c":"",
       "sdp":"SDP001095",
       "times":"09:00:00",
       "days":"M-T-W-TH-F",
       "name":"HERNANDEZ BLANCA",
       "site":"EL CAJON PACE",
       "other":"",
       "full_address":"1766 BRAMBLEWOOD CT CV CA 91913",
       "formatted_address":"1766 BRAMBLEWOOD CT, CHULA VISTA, CA 91913, USA",
       "number":"1766",
       "street":"BRAMBLEWOOD CT",
       "city":"CHULA VISTA",
       "state":"CA",
       "zip":"91913",
       "longitude":-116.9837475,
       "latitude":32.6346877,
       "spoken_languages": ["English"],
       "banned_ethnic_group":[
          
       ],
       "banned_drivers":[
          
       ],
       "prefered_driver": null,
       "unsafe_for_female_driver":0,
       "unsafe_for_male_driver":0,
        "bording_time":300,
       "constraints" : ["AMB"]
    },
    {
       "id":24,
       "c":"",
       "sdp":"SDP001206",
       "times":"08:00:00",
       "days":"M-T-W-TH-F",
       "name":"ECHEVERRIA, ALBERTO",
       "site":"CV",
       "other":"",
       "full_address":"322 CAMINO ELEVADO",
       "formatted_address":"",
       "number":"",
       "street":"",
       "city":"",
       "state":"",
       "zip":"",
       "longitude":0,
       "latitude":0,
       "spoken_languages": ["English"],
       "banned_ethnic_group":[
          
       ],
       "banned_drivers":[
          
       ],
       "prefered_driver": null,
       "unsafe_for_female_driver":0,
       "unsafe_for_male_driver":0,
        "bording_time":300,
       "constraints" : ["AMB"]
    },
    {
       "id":25,
       "c":"",
       "sdp":"SDP000943",
       "times":"08:00:00",
       "days":"M-T-W-TH-F",
       "name":"TORRES , NANCY",
       "site":"CV",
       "other":"",
       "full_address":"8 VIA VENETO",
       "formatted_address":"",
       "number":"",
       "street":"",
       "city":"",
       "state":"",
       "zip":"",
       "longitude":0,
       "latitude":0,
       "spoken_languages": ["English"],
       "banned_ethnic_group":[
          
       ],
       "banned_drivers":[
          
       ],
       "prefered_driver": null,
       "unsafe_for_female_driver":0,
       "unsafe_for_male_driver":0,
        "bording_time":300,
       "constraints" : ["AMB"]
    },
    {
       "id":26,
       "c":"",
       "sdp":"SDP000437",
       "times":"08:00:00",
       "days":"M-T-W-TH-F",
       "name":"QUINTANA,MARIA",
       "site":"CV",
       "other":"",
       "full_address":"667 5TH AVE CV CA 91910",
       "formatted_address":"667 5TH AVE, CHULA VISTA, CA 91910, USA",
       "number":"667",
       "street":"5TH AVE",
       "city":"CHULA VISTA",
       "state":"CA",
       "zip":"91910",
       "longitude":-117.0828329,
       "latitude":32.6264064,
       "spoken_languages": ["English"],
       "banned_ethnic_group":[
          
       ],
       "banned_drivers":[
          
       ],
       "prefered_driver": null,
       "unsafe_for_female_driver":0,
       "unsafe_for_male_driver":0,
        "bording_time":300,
       "constraints" : ["AMB"]
    },
    {
       "id":27,
       "c":"",
       "sdp":"SDP496723",
       "times":"11:00:00",
       "days":"M-T-W-TH-F",
       "name":"PARTIDA, ANSELMA",
       "site":"CV",
       "other":"",
       "full_address":"325 54TH ST SPC 39, SD CA 92114",
       "formatted_address":"325 54TH ST, SAN DIEGO, CA 92114, USA",
       "number":"325",
       "street":"54TH ST",
       "city":"SAN DIEGO",
       "state":"CA",
       "zip":"92114",
       "longitude":-117.0787761,
       "latitude":32.7085701,
       "spoken_languages": ["English"],
       "banned_ethnic_group":[
          
       ],
       "banned_drivers":[
          
       ],
       "prefered_driver": null,
       "unsafe_for_female_driver":0,
       "unsafe_for_male_driver":0,
        "bording_time":300,
       "constraints" : ["AMB"]
    },
    {
       "id":28,
       "c":"",
       "sdp":"SDP020833",
       "times":"11:00:00",
       "days":"M-T-W-TH-F",
       "name":"MOLINA, GUILLERMO",
       "site":"CV",
       "other":"",
       "full_address":"5130 GROVELAND DR SD CA 92114",
       "formatted_address":"5130 GROVELAND DR, SAN DIEGO, CA 92114, USA",
       "number":"5130",
       "street":"GROVELAND DR",
       "city":"SAN DIEGO",
       "state":"CA",
       "zip":"92114",
       "longitude":-117.0843269,
       "latitude":32.7079229,
       "spoken_languages": ["English"],
       "banned_ethnic_group":[
          
       ],
       "banned_drivers":[
          
       ],
       "prefered_driver": null,
       "unsafe_for_female_driver":0,
       "unsafe_for_male_driver":0,
        "bording_time":300,
       "constraints" : ["AMB"]
    },
    {
       "id":29,
       "c":"WHC",
       "sdp":"SDP000186",
       "times":"09:00:00",
       "days":"M-T-W-TH-F",
       "name":"WILLIAMS ANAME",
       "site":"EL CAJON PACE",
       "other":"",
       "full_address":"811 S 47TH ST APT A SD CA 92113",
       "formatted_address":"811 S 47TH ST, SAN DIEGO, CA 92113, USA",
       "number":"811",
       "street":"S 47TH ST",
       "city":"SAN DIEGO",
       "state":"CA",
       "zip":"92113",
       "longitude":-117.0931755,
       "latitude":32.697349,
       "spoken_languages": ["English"],
       "banned_ethnic_group":[
          
       ],
       "banned_drivers":[
          
       ],
       "prefered_driver": null,
       "unsafe_for_female_driver":0,
       "unsafe_for_male_driver":0,
        "bording_time":300,
       "constraints" : ["AMB"]
    },
    {
       "id":30,
       "c":"",
       "sdp":"SDP3133166",
       "times":"09:00:00",
       "days":"M-T-W-TH-F",
       "name":"VENTURA, LUCIA",
       "site":"EL CAJON PACE",
       "other":"",
       "full_address":"3228 55TH ST SD CA 92105",
       "formatted_address":"3228 55TH ST, SAN DIEGO, CA 92105, USA",
       "number":"3228",
       "street":"55TH ST",
       "city":"SAN DIEGO",
       "state":"CA",
       "zip":"92105",
       "longitude":-117.0778683,
       "latitude":32.7405648,
       "spoken_languages": ["English"],
       "banned_ethnic_group":[
          
       ],
       "banned_drivers":[
          
       ],
       "prefered_driver": null,
       "unsafe_for_female_driver":0,
       "unsafe_for_male_driver":0,
        "bording_time":300,
       "constraints" : ["AMB"]
    },
    {
       "id":31,
       "c":"",
       "sdp":"SDP298941",
       "times":"09:00:00",
       "days":"W",
       "name":"RODRIGUEZ, VIRGINIA",
       "site":"EL CAJON PACE",
       "other":"",
       "full_address":"2632 E PLAZA BLVD APT 207 NC CA 91950",
       "formatted_address":"2632 E PLAZA BLVD, NATIONAL CITY, CA 91950, USA",
       "number":"2632",
       "street":"E PLAZA BLVD",
       "city":"NATIONAL CITY",
       "state":"CA",
       "zip":"91950",
       "longitude":-117.0788702,
       "latitude":32.6800081,
       "spoken_languages": ["English"],
       "banned_ethnic_group":[
          
       ],
       "banned_drivers":[
          
       ],
       "prefered_driver": null,
       "unsafe_for_female_driver":0,
       "unsafe_for_male_driver":0,
        "bording_time":300,
       "constraints" : ["AMB"]
    },
    {
       "id":32,
       "c":"",
       "sdp":"SDP269402",
       "times":"09:00:00",
       "days":"M-T-W-TH",
       "name":"FREEMAN, GENEVIEVE",
       "site":"CV",
       "other":"",
       "full_address":"4765 HOME AVE #52 SAN DIEGO, CA 92105",
       "formatted_address":"4765 HOME AVE, SAN DIEGO, CA 92105, USA",
       "number":"4765",
       "street":"HOME AVE",
       "city":"SAN DIEGO",
       "state":"CA",
       "zip":"92105",
       "longitude":-117.0915897,
       "latitude":32.736454,
       "spoken_languages": ["English"],
       "banned_ethnic_group":[
          
       ],
       "banned_drivers":[
          
       ],
       "prefered_driver": null,
       "unsafe_for_female_driver":0,
       "unsafe_for_male_driver":0,
        "bording_time":300,
       "constraints" : ["AMB"]
    },
    {
       "id":33,
       "c":"",
       "sdp":"SDP423569",
       "times":"09:00:00",
       "days":"M-T-W-TH-F",
       "name":"GUZMAN HERMELINDA",
       "site":"CV",
       "other":"",
       "full_address":"1543 Q AVE NC CA91950",
       "formatted_address":"",
       "number":"",
       "street":"",
       "city":"",
       "state":"",
       "zip":"",
       "longitude":0,
       "latitude":0,
       "spoken_languages": ["English"],
       "banned_ethnic_group":[
          
       ],
       "banned_drivers":[
          
       ],
       "prefered_driver": null,
       "unsafe_for_female_driver":0,
       "unsafe_for_male_driver":0,
        "bording_time":300,
       "constraints" : ["AMB"]
    },
    {
       "id":34,
       "c":"",
       "sdp":"SDP434718",
       "times":"09:00:00",
       "days":"M-T-W-TH",
       "name":"LAFRANCE CHANTAL",
       "site":"CV",
       "other":"",
       "full_address":"221 E ONEIDA ST CV CA 91911",
       "formatted_address":"221 E ONEIDA ST, CHULA VISTA, CA 91911, USA",
       "number":"221",
       "street":"E ONEIDA ST",
       "city":"CHULA VISTA",
       "state":"CA",
       "zip":"91911",
       "longitude":-117.0464227,
       "latitude":32.6148208,
       "spoken_languages": ["English"],
       "banned_ethnic_group":[
          
       ],
       "banned_drivers":[
          
       ],
       "prefered_driver": null,
       "unsafe_for_female_driver":0,
       "unsafe_for_male_driver":0,
        "bording_time":300,
       "constraints" : ["AMB"]
    },
    {
       "id":35,
       "c":"",
       "sdp":"SDP001768",
       "times":"11:00:00",
       "days":"M-W-F",
       "name":"PERALES SOTO MARIA LUCI",
       "site":"CV",
       "other":"",
       "full_address":"447 CASSELMAN ST APT C CV CA 91910",
       "formatted_address":"447 CASSELMAN ST, CHULA VISTA, CA 91910, USA",
       "number":"447",
       "street":"CASSELMAN ST",
       "city":"CHULA VISTA",
       "state":"CA",
       "zip":"91910",
       "longitude":-117.0890206,
       "latitude":32.6476327,
       "spoken_languages": ["English"],
       "banned_ethnic_group":[
          
       ],
       "banned_drivers":[
          
       ],
       "prefered_driver": null,
       "unsafe_for_female_driver":0,
       "unsafe_for_male_driver":0,
        "bording_time":300,
       "constraints" : ["AMB"]
    },
    {
       "id":36,
       "c":"",
       "sdp":"SDP494052",
       "times":"11:00:00",
       "days":"M-T-W-TH-F",
       "name":"RAMIREZ AURELIO",
       "site":"CV",
       "other":"HOLD",
       "full_address":"3438 MENARD ST NC CA 91950",
       "formatted_address":"3438 MENARD ST, NATIONAL CITY, CA 91950, USA",
       "number":"3438",
       "street":"MENARD ST",
       "city":"NATIONAL CITY",
       "state":"CA",
       "zip":"91950",
       "longitude":-117.0611807,
       "latitude":32.6606973,
       "spoken_languages": ["English"],
       "banned_ethnic_group":[
          
       ],
       "banned_drivers":[
          
       ],
       "prefered_driver": null,
       "unsafe_for_female_driver":0,
       "unsafe_for_male_driver":0,
        "bording_time":300,
       "constraints" : ["AMB"]
    },
    {
       "id":37,
       "c":"",
       "sdp":"SDP105493",
       "times":"11:00:00",
       "days":"M-W",
       "name":"MEDINA MARIA",
       "site":"CV",
       "other":"HOLD",
       "full_address":"1403 E 6TH ST NC CA 91950",
       "formatted_address":"1403 E 6TH ST, NATIONAL CITY, CA 91950, USA",
       "number":"1403",
       "street":"E 6TH ST",
       "city":"NATIONAL CITY",
       "state":"CA",
       "zip":"91950",
       "longitude":-117.0932675,
       "latitude":32.6817639,
       "spoken_languages": ["English"],
       "banned_ethnic_group":[
          
       ],
       "banned_drivers":[
          
       ],
       "prefered_driver": null,
       "unsafe_for_female_driver":0,
       "unsafe_for_male_driver":0,
        "bording_time":300,
       "constraints" : ["AMB"]
    },
    {
       "id":38,
       "c":"",
       "sdp":"SDP412187",
       "times":"11:00:00",
       "days":"M-W-F",
       "name":"ROTHER PATRICIA",
       "site":"CV",
       "other":"",
       "full_address":"332 C ST APT 33 CV CA 91910",
       "formatted_address":"332 C ST, CHULA VISTA, CA 91910, USA",
       "number":"332",
       "street":"C ST",
       "city":"CHULA VISTA",
       "state":"CA",
       "zip":"91910",
       "longitude":-117.0851146,
       "latitude":32.6510447,
       "spoken_languages": ["English"],
       "banned_ethnic_group":[
          
       ],
       "banned_drivers":[
          
       ],
       "prefered_driver": null,
       "unsafe_for_female_driver":0,
       "unsafe_for_male_driver":0,
        "bording_time":300,
       "constraints" : ["AMB"]
    },
    {
       "id":39,
       "c":"",
       "sdp":"SDP317621",
       "times":"09:00:00",
       "days":"M & F",
       "name":"ROMERO MARIA DEL CARMEN",
       "site":"CV",
       "other":"",
       "full_address":"354 ORANGE AVE CHULA VISTA 91911",
       "formatted_address":"354 ORANGE AVE, CHULA VISTA, CA 91911, USA",
       "number":"354",
       "street":"ORANGE AVE",
       "city":"CHULA VISTA",
       "state":"CA",
       "zip":"91911",
       "longitude":-117.0668353,
       "latitude":32.602319,
       "spoken_languages": ["English"],
       "banned_ethnic_group":[
          
       ],
       "banned_drivers":[
          
       ],
       "prefered_driver": null,
       "unsafe_for_female_driver":0,
       "unsafe_for_male_driver":0,
        "bording_time":300,
       "constraints" : ["AMB"]
    },
    {
       "id":40,
       "c":"",
       "sdp":"SDP252135",
       "times":"11:00:00",
       "days":"M-W-TH",
       "name":"MORENO LEONOR",
       "site":"CV",
       "other":"",
       "full_address":"476 ORSETT CV CA 91911",
       "formatted_address":"476 ORSETT ST, CHULA VISTA, CA 91911, USA",
       "number":"476",
       "street":"ORSETT ST",
       "city":"CHULA VISTA",
       "state":"CA",
       "zip":"91911",
       "longitude":-117.0739608,
       "latitude":32.6063492,
       "spoken_languages": ["English"],
       "banned_ethnic_group":[
          
       ],
       "banned_drivers":[
          
       ],
       "prefered_driver": null,
       "unsafe_for_female_driver":0,
       "unsafe_for_male_driver":0,
        "bording_time":300,
       "constraints" : ["AMB"]
    },
    {
       "id":41,
       "c":"",
       "sdp":"SDP001009",
       "times":"07:00:00",
       "days":"M-T-W-TH-F",
       "name":"AVILES, MARIO ",
       "site":"CV",
       "other":"",
       "full_address":"1270 RIVERA SUMMIT RD",
       "formatted_address":"",
       "number":"",
       "street":"",
       "city":"",
       "state":"",
       "zip":"",
       "longitude":0,
       "latitude":0,
       "spoken_languages": ["English"],
       "banned_ethnic_group":[
          
       ],
       "banned_drivers":[
          
       ],
       "prefered_driver": null,
       "unsafe_for_female_driver":0,
       "unsafe_for_male_driver":0,
        "bording_time":300,
       "constraints" : ["AMB"]
    },
    {
       "id":42,
       "c":"",
       "sdp":"SDP000392",
       "times":"09:00:00",
       "days":"M-W-F",
       "name":"BUENO, JUANA",
       "site":"EL CAJON PACE",
       "other":"",
       "full_address":"163 WEST HALL SAN YSIDRO CA 92173",
       "formatted_address":"163 W HALL AVE, SAN YSIDRO, CA 92173, USA",
       "number":"163",
       "street":"W HALL AVE",
       "city":"SAN DIEGO",
       "state":"CA",
       "zip":"92173",
       "longitude":-117.0471814,
       "latitude":32.5548285,
       "spoken_languages": ["English"],
       "banned_ethnic_group":[
          
       ],
       "banned_drivers":[
          
       ],
       "prefered_driver": null,
       "unsafe_for_female_driver":0,
       "unsafe_for_male_driver":0,
        "bording_time":300,
       "constraints" : ["AMB"]
    },
    {
       "id":43,
       "c":"",
       "sdp":"SDP544766",
       "times":"09:00:00",
       "days":"M-T-W-TH-F",
       "name":"BAUTISTA MARTIN",
       "site":"EL CAJON PACE",
       "other":"",
       "full_address":"3604 BEYER BLVD BUILDING 1 APT 102 SAN YSIDRO CA",
       "formatted_address":"",
       "number":"",
       "street":"",
       "city":"",
       "state":"",
       "zip":"",
       "longitude":0,
       "latitude":0,
       "spoken_languages": ["English"],
       "banned_ethnic_group":[
          
       ],
       "banned_drivers":[
          
       ],
       "prefered_driver": null,
       "unsafe_for_female_driver":0,
       "unsafe_for_male_driver":0,
        "bording_time":300,
       "constraints" : ["AMB"]
    },
    {
       "id":44,
       "c":"",
       "sdp":"SDP000672",
       "times":"09:00:00",
       "days":"M-T-W-TH-F",
       "name":"VALENZUELA RAMI, IGNACIO ",
       "site":"EL CAJON PACE",
       "other":"",
       "full_address":"3604 BEYER BLVD APT 34-102 SAN YSIDRO CA",
       "formatted_address":"",
       "number":"",
       "street":"",
       "city":"",
       "state":"",
       "zip":"",
       "longitude":0,
       "latitude":0,
       "spoken_languages": ["English"],
       "banned_ethnic_group":[
          
       ],
       "banned_drivers":[
          
       ],
       "prefered_driver": null,
       "unsafe_for_female_driver":0,
       "unsafe_for_male_driver":0,
        "bording_time":300,
       "constraints" : ["AMB"]
    },
    {
       "id":45,
       "c":"",
       "sdp":"SDP283811",
       "times":"11:00:00",
       "days":"M-T-W-TH-F",
       "name":"GUTIERREZ ANA",
       "site":"EL CAJON PACE",
       "other":"",
       "full_address":"1045 DRACMA DR SAN DIEGO 92154",
       "formatted_address":"1045 DRACMA DR, SAN DIEGO, CA 92154, USA",
       "number":"1045",
       "street":"DRACMA DR",
       "city":"SAN DIEGO",
       "state":"CA",
       "zip":"92154",
       "longitude":-117.0717542,
       "latitude":32.5778692,
       "spoken_languages": ["English"],
       "banned_ethnic_group":[
          
       ],
       "banned_drivers":[
          
       ],
       "prefered_driver": null,
       "unsafe_for_female_driver":0,
       "unsafe_for_male_driver":0,
        "bording_time":300,
       "constraints" : ["AMB"]
    },
    {
       "id":46,
       "c":"",
       "sdp":"(SDP365843)",
       "times":"08:00:00",
       "days":"M-T-W-TH-F",
       "name":"VILLALOBOS ELIAS",
       "site":"EL CAJON PACE",
       "other":"",
       "full_address":"131 EAST SEAWARD SAN YSIDRO, CA 92173",
       "formatted_address":"131 E SEAWARD AVE, SAN DIEGO, CA 92173, USA",
       "number":"131",
       "street":"E SEAWARD AVE",
       "city":"SAN DIEGO",
       "state":"CA",
       "zip":"92173",
       "longitude":-117.0431229,
       "latitude":32.5572789,
       "spoken_languages": ["English"],
       "banned_ethnic_group":[
          
       ],
       "banned_drivers":[
          
       ],
       "prefered_driver": null,
       "unsafe_for_female_driver":0,
       "unsafe_for_male_driver":0,
        "bording_time":300,
       "constraints" : ["AMB"]
    },
    {
       "id":47,
       "c":"",
       "sdp":"(SDP587854)",
       "times":"08:00:00",
       "days":"T-W-TH-F",
       "name":"SANCHEZ GUADALUPE",
       "site":"EL CAJON PACE",
       "other":"",
       "full_address":"3878 BEYER BLVD #23 SAN YSIDRO, CA 92173",
       "formatted_address":"3878 BEYER BLVD, SAN DIEGO, CA 92173, USA",
       "number":"3878",
       "street":"BEYER BLVD",
       "city":"SAN DIEGO",
       "state":"CA",
       "zip":"92173",
       "longitude":-117.0504686,
       "latitude":32.5601014,
       "spoken_languages": ["English"],
       "banned_ethnic_group":[
          
       ],
       "banned_drivers":[
          
       ],
       "prefered_driver": null,
       "unsafe_for_female_driver":0,
       "unsafe_for_male_driver":0,
        "bording_time":300,
       "constraints" : ["AMB"]
    },
    {
       "id":48,
       "c":"WHC",
       "sdp":"(SDP313535)",
       "times":"08:00:00",
       "days":"M-T-W-TH-F",
       "name":"LLANOS, OLGA CBLA",
       "site":"CV",
       "other":"",
       "full_address":"2154 NEWTON AVE SAN DIEGO, CA 92113",
       "formatted_address":"2154 NEWTON AVE, SAN DIEGO, CA 92113, USA",
       "number":"2154",
       "street":"NEWTON AVE",
       "city":"SAN DIEGO",
       "state":"CA",
       "zip":"92113",
       "longitude":-117.1414343,
       "latitude":32.6970596,
       "spoken_languages": ["English"],
       "banned_ethnic_group":[
          
       ],
       "banned_drivers":[
          
       ],
       "prefered_driver": null,
       "unsafe_for_female_driver":0,
       "unsafe_for_male_driver":0,
        "bording_time":300,
       "constraints" : ["AMB"]
    },
    {
       "id":49,
       "c":"",
       "sdp":"(SDP277381)",
       "times":"09:00:00",
       "days":"M-T-W-TH-F",
       "name":"MEJIA, FRANCISCO CBLA",
       "site":"CV",
       "other":"",
       "full_address":"662 CEDAR AVE CHULA VISTA, CA 91910",
       "formatted_address":"662 CEDAR AVE, CHULA VISTA, CA 91910, USA",
       "number":"662",
       "street":"CEDAR AVE",
       "city":"CHULA VISTA",
       "state":"CA",
       "zip":"91910",
       "longitude":-117.0844878,
       "latitude":32.626063,
       "spoken_languages": ["English"],
       "banned_ethnic_group":[
          
       ],
       "banned_drivers":[
          
       ],
       "prefered_driver": null,
       "unsafe_for_female_driver":0,
       "unsafe_for_male_driver":0,
        "bording_time":300,
       "constraints" : ["AMB"]
    },
    {
       "id":50,
       "c":"",
       "sdp":"(SDP278535)",
       "times":"09:00:00",
       "days":"M-T-W-TH-F",
       "name":"MEJIA, FRANCISCA CBLA",
       "site":"CV",
       "other":"",
       "full_address":"662 CEDER AVE CHULA VISTA, CA 91910",
       "formatted_address":"662 CEDAR AVE, CHULA VISTA, CA 91910, USA",
       "number":"662",
       "street":"CEDAR AVE",
       "city":"CHULA VISTA",
       "state":"CA",
       "zip":"91910",
       "longitude":-117.0844878,
       "latitude":32.626063,
       "spoken_languages": ["English"],
       "banned_ethnic_group":[
          
       ],
       "banned_drivers":[
          
       ],
       "prefered_driver": null,
       "unsafe_for_female_driver":0,
       "unsafe_for_male_driver":0,
        "bording_time":300,
       "constraints" : ["AMB"]
    },
    {
       "id":51,
       "c":"AMB",
       "sdp":"(SDP000704)",
       "times":"08:00:00",
       "days":"WTHF",
       "name":"LEAL RICARDI, LOURDES LULU",
       "site":"CV",
       "other":"",
       "full_address":"1814 5TH AVE APT 214 SAN DIEGO, CA 92101",
       "formatted_address":"1814 FIFTH AVE, SAN DIEGO, CA 92101, USA",
       "number":"1814",
       "street":"FIFTH AVE",
       "city":"SAN DIEGO",
       "state":"CA",
       "zip":"92101",
       "longitude":-117.1605279,
       "latitude":32.7243098,
       "spoken_languages": ["English"],
       "banned_ethnic_group":[
          
       ],
       "banned_drivers":[
          
       ],
       "prefered_driver": 1,
       "unsafe_for_female_driver":0,
       "unsafe_for_male_driver":0,
       "bording_time":null
    },
    {
       "id":52,
       "c":"",
       "sdp":"(SDP341214)",
       "times":"08:00:00",
       "days":"M-W-F",
       "name":"GALLEGOS DE AGUILAR, LINDA",
       "site":"CV",
       "other":"",
       "full_address":"1317 D AVE #515 NATIONAL CITY, CA 91950",
       "formatted_address":"",
       "number":"",
       "street":"",
       "city":"",
       "state":"",
       "zip":"",
       "longitude":0,
       "latitude":0,
       "spoken_languages": ["English"],
       "banned_ethnic_group":[
          
       ],
       "banned_drivers":[
          
       ],
       "prefered_driver": null,
       "unsafe_for_female_driver":0,
       "unsafe_for_male_driver":0,
        "bording_time":300,
       "constraints" : ["AMB"]
    },
    {
       "id":53,
       "c":"WHC",
       "sdp":"(SDP005161)",
       "times":"09:00:00",
       "days":"MTWTHF",
       "name":"BECERRA, VIRGINIA",
       "site":"CV",
       "other":"",
       "full_address":"420 SOUTH VISTA AVE #12 SAN YSIDRO, CA 92173",
       "formatted_address":"420 S VISTA AVE, SAN DIEGO, CA 92173, USA",
       "number":"420",
       "street":"S VISTA AVE",
       "city":"SAN DIEGO",
       "state":"CA",
       "zip":"92173",
       "longitude":-117.0548133,
       "latitude":32.5611609,
       "spoken_languages": ["English"],
       "banned_ethnic_group":[
          
       ],
       "banned_drivers":[
          
       ],
       "prefered_driver": null,
       "unsafe_for_female_driver":0,
       "unsafe_for_male_driver":0,
        "bording_time":300,
       "constraints" : ["AMB"]
    },
    {
       "id":54,
       "c":"AMB",
       "sdp":"(SDP000327)",
       "times":"09:00:00",
       "days":"MTW",
       "name":"DUARTE, JOSE CBLA",
       "site":"CV",
       "other":"",
       "full_address":"708 H STREET SPACE 30 CHULA VISTA, CA 91910",
       "formatted_address":"708 H ST, CHULA VISTA, CA 91910, USA",
       "number":"708",
       "street":"H ST",
       "city":"CHULA VISTA",
       "state":"CA",
       "zip":"91910",
       "longitude":-117.0940489,
       "latitude":32.6280524,
       "spoken_languages": ["English"],
       "banned_ethnic_group":[
          
       ],
       "banned_drivers":[
          
       ],
       "prefered_driver": null,
       "unsafe_for_female_driver":0,
       "unsafe_for_male_driver":0,
        "bording_time":300,
       "constraints" : ["AMB"]
    },
    {
       "id":55,
       "c":"AMB",
       "sdp":"(SDP007157)",
       "times":"09:00:00",
       "days":"TWTH",
       "name":"DIAZ DE RUIZ, MARIA CBLA",
       "site":"CV",
       "other":"",
       "full_address":"289 BEECH AVE #2 CHULA VISTA, CA 91911",
       "formatted_address":"289 BEECH AVE, CHULA VISTA, CA 91910, USA",
       "number":"289",
       "street":"BEECH AVE",
       "city":"CHULA VISTA",
       "state":"CA",
       "zip":"91910",
       "longitude":-117.0900498,
       "latitude":32.6389948,
       "spoken_languages": ["English"],
       "banned_ethnic_group":[
          
       ],
       "banned_drivers":[
          
       ],
       "prefered_driver": null,
       "unsafe_for_female_driver":0,
       "unsafe_for_male_driver":0,
        "bording_time":300,
       "constraints" : ["AMB"]
    },
    {
       "id":56,
       "c":"AMB",
       "sdp":"(SDP007148)",
       "times":"09:00:00",
       "days":"TWTH",
       "name":"RUIZ MORENO, JORGE CBLA",
       "site":"CV",
       "other":"",
       "full_address":"289 BEECH AVE #2 CHULA VISTA, CA 91911",
       "formatted_address":"289 BEECH AVE, CHULA VISTA, CA 91910, USA",
       "number":"289",
       "street":"BEECH AVE",
       "city":"CHULA VISTA",
       "state":"CA",
       "zip":"91910",
       "longitude":-117.0900498,
       "latitude":32.6389948,
       "spoken_languages": ["English"],
       "banned_ethnic_group":[
          
       ],
       "banned_drivers":[
          
       ],
       "prefered_driver": null,
       "unsafe_for_female_driver":0,
       "unsafe_for_male_driver":0,
        "bording_time":300,
       "constraints" : ["AMB"]
    },
    {
       "id":57,
       "c":"",
       "sdp":"",
       "times":"08:00:00",
       "days":"M-T-W-TH-F",
       "name":"COMPANION CVC ",
       "site":"CV",
       "other":"",
       "full_address":"1629 Santa Venetia St, Chula Vista, CA 91913",
       "formatted_address":"",
       "number":"",
       "street":"",
       "city":"",
       "state":"",
       "zip":"",
       "longitude":0,
       "latitude":0,
       "spoken_languages": ["English"],
       "banned_ethnic_group":[
          
       ],
       "banned_drivers":[
          
       ],
       "prefered_driver": null,
       "unsafe_for_female_driver":0,
       "unsafe_for_male_driver":0,
        "bording_time":300,
       "constraints" : ["AMB"]
    },
    {
       "id":58,
       "c":"",
       "sdp":"SDP000639",
       "times":"08:00:00",
       "days":"M-T-W-TH-F",
       "name":"RIOS CARLOS B",
       "site":"CV",
       "other":"",
       "full_address":"3840 43RD ST SAN DIEGO 92105",
       "formatted_address":"3840 43RD ST, SAN DIEGO, CA 92105, USA",
       "number":"3840",
       "street":"43RD ST",
       "city":"SAN DIEGO",
       "state":"CA",
       "zip":"92105",
       "longitude":-117.1024607,
       "latitude":32.7485855,
       "spoken_languages": ["English"],
       "banned_ethnic_group":[
          
       ],
       "banned_drivers":[
          
       ],
       "prefered_driver": null,
       "unsafe_for_female_driver":0,
       "unsafe_for_male_driver":0,
        "bording_time":300,
       "constraints" : ["AMB"]
    },
    {
       "id":59,
       "c":"",
       "sdp":"SDP471635",
       "times":"08:00:00",
       "days":"M-T-W-TH-F",
       "name":"FABELA JOSE LUIS",
       "site":"CV",
       "other":"",
       "full_address":"2350 RUSSELL PARKWAY APT #615 SAN DIEGO, CA 92108",
       "formatted_address":"2350 RUSSELL PARK WAY, SAN DIEGO, CA 92108, USA",
       "number":"2350",
       "street":"RUSSELL PARK WAY",
       "city":"SAN DIEGO",
       "state":"CA",
       "zip":"92108",
       "longitude":-117.1485542,
       "latitude":32.7757823,
       "spoken_languages": ["English"],
       "banned_ethnic_group":[
          
       ],
       "banned_drivers":[
          
       ],
       "prefered_driver": null,
       "unsafe_for_female_driver":0,
       "unsafe_for_male_driver":0,
        "bording_time":300,
       "constraints" : ["AMB"]
    },
    {
       "id":60,
       "c":"",
       "sdp":"SDP00746",
       "times":"09:00:00",
       "days":"M-T-W-TH-F",
       "name":"ZERMENO RAQUEL",
       "site":"CV",
       "other":"",
       "full_address":"1423 OLEANDER AVENUE CHULA VISTA, CA 91911",
       "formatted_address":"1423 OLEANDER AVE, CHULA VISTA, CA 91911, USA",
       "number":"1423",
       "street":"OLEANDER AVE",
       "city":"CHULA VISTA",
       "state":"CA",
       "zip":"91911",
       "longitude":-117.0344226,
       "latitude":32.6097094,
       "spoken_languages": ["English"],
       "banned_ethnic_group":[
          
       ],
       "banned_drivers":[
          
       ],
       "prefered_driver": null,
       "unsafe_for_female_driver":0,
       "unsafe_for_male_driver":0,
        "bording_time":300,
       "constraints" : ["AMB"]
    },
    {
       "id":61,
       "c":"",
       "sdp":"SDP142733",
       "times":"09:00:00",
       "days":"M-T-W-TH",
       "name":"FLORES SOSA MARIA",
       "site":"CV",
       "other":"",
       "full_address":"1425 2ND AVE SP9 CHULA VISTA 91911",
       "formatted_address":"1425 2ND AVE, CHULA VISTA, CA 91911, USA",
       "number":"1425",
       "street":"2ND AVE",
       "city":"CHULA VISTA",
       "state":"CA",
       "zip":"91911",
       "longitude":-117.0580889,
       "latitude":32.6036828,
       "spoken_languages": ["English"],
       "banned_ethnic_group":[
          
       ],
       "banned_drivers":[
          
       ],
       "prefered_driver": null,
       "unsafe_for_female_driver":0,
       "unsafe_for_male_driver":0,
        "bording_time":300,
       "constraints" : ["AMB"]
    },
    {
       "id":62,
       "c":"",
       "sdp":"SDP361567",
       "times":"09:00:00",
       "days":"TH",
       "name":"JABONILLO FORTUNATA",
       "site":"CV",
       "other":"",
       "full_address":"1020 BURGA LOOP CHULA VISTA 91910",
       "formatted_address":"",
       "number":"",
       "street":"",
       "city":"",
       "state":"",
       "zip":"",
       "longitude":0,
       "latitude":0,
       "spoken_languages": ["English"],
       "banned_ethnic_group":[
          
       ],
       "banned_drivers":[
          
       ],
       "prefered_driver": null,
       "unsafe_for_female_driver":0,
       "unsafe_for_male_driver":0,
        "bording_time":300,
       "constraints" : ["AMB"]
    },
    {
       "id":63,
       "c":"",
       "sdp":"SDP266388",
       "times":"11:00:00",
       "days":"W-TH",
       "name":"CHAVEZ MARCELA",
       "site":"EL CAJON PACE",
       "other":"",
       "full_address":"4729 WIND SURF WAY APT 335 SAN DIEGO 92154",
       "formatted_address":"4729 WIND SURF WAY, SAN DIEGO, CA 92154, USA",
       "number":"4729",
       "street":"WIND SURF WAY",
       "city":"SAN DIEGO",
       "state":"CA",
       "zip":"92154",
       "longitude":-117.0301814,
       "latitude":32.588868,
       "spoken_languages": ["English"],
       "banned_ethnic_group":[
          
       ],
       "banned_drivers":[
          
       ],
       "prefered_driver": null,
       "unsafe_for_female_driver":0,
       "unsafe_for_male_driver":0,
        "bording_time":300,
       "constraints" : ["AMB"]
    },
    {
       "id":64,
       "c":"",
       "sdp":"SDP000624",
       "times":"11:00:00",
       "days":"M & F",
       "name":"SALAZAR GRISELDA",
       "site":"EL CAJON PACE",
       "other":"",
       "full_address":"1151 TESORO GROVE WAY APT130 SAN DIEGO 92154",
       "formatted_address":"1151 TESORO GROVE WAY, SAN DIEGO, CA 92154, USA",
       "number":"1151",
       "street":"TESORO GROVE WAY",
       "city":"SAN DIEGO",
       "state":"CA",
       "zip":"92154",
       "longitude":-117.0820514,
       "latitude":32.575399,
       "spoken_languages": ["English"],
       "banned_ethnic_group":[
          
       ],
       "banned_drivers":[
          
       ],
       "prefered_driver": null,
       "unsafe_for_female_driver":0,
       "unsafe_for_male_driver":0,
        "bording_time":300,
       "constraints" : ["AMB"]
    },
    {
       "id":65,
       "c":"",
       "sdp":"SDP040567",
       "times":"11:00:00",
       "days":"W &TH",
       "name":"RODRIGUEZ MARIA",
       "site":"EL CAJON PACE",
       "other":"",
       "full_address":"324 WILLOW RD APT2H SAN DIEGO 92173",
       "formatted_address":"324 WILLOW RD, SAN DIEGO, CA 92173, USA",
       "number":"324",
       "street":"WILLOW RD",
       "city":"SAN DIEGO",
       "state":"CA",
       "zip":"92173",
       "longitude":-117.0422571,
       "latitude":32.5469827,
       "spoken_languages": ["English"],
       "banned_ethnic_group":[
          
       ],
       "banned_drivers":[
          
       ],
       "prefered_driver": null,
       "unsafe_for_female_driver":0,
       "unsafe_for_male_driver":0,
        "bording_time":300,
       "constraints" : ["AMB"]
    },
    {
       "id":66,
       "c":"",
       "sdp":"SDP388228",
       "times":"09:00:00",
       "days":"M & F",
       "name":"ZAVALA TAMARA",
       "site":"CV",
       "other":"",
       "full_address":"2644 J AVE NC CA 91950",
       "formatted_address":"2644 J AVE, NATIONAL CITY, CA 91950, USA",
       "number":"2644",
       "street":"J AVE",
       "city":"NATIONAL CITY",
       "state":"CA",
       "zip":"91950",
       "longitude":-117.0904704,
       "latitude":32.6623846,
       "spoken_languages": ["English"],
       "banned_ethnic_group":[
          
       ],
       "banned_drivers":[
          
       ],
       "prefered_driver": null,
       "unsafe_for_female_driver":0,
       "unsafe_for_male_driver":0,
        "bording_time":300,
       "constraints" : ["AMB"]
    },
    {
       "id":67,
       "c":"",
       "sdp":"SDP388211",
       "times":"09:00:00",
       "days":"M & F",
       "name":"LANG FELICIA",
       "site":"CV",
       "other":"",
       "full_address":"2644 J AVE NC CA 91950",
       "formatted_address":"2644 J AVE, NATIONAL CITY, CA 91950, USA",
       "number":"2644",
       "street":"J AVE",
       "city":"NATIONAL CITY",
       "state":"CA",
       "zip":"91950",
       "longitude":-117.0904704,
       "latitude":32.6623846,
       "spoken_languages": ["English"],
       "banned_ethnic_group":[
          
       ],
       "banned_drivers":[
          
       ],
       "prefered_driver": null,
       "unsafe_for_female_driver":0,
       "unsafe_for_male_driver":0,
        "bording_time":300,
       "constraints" : ["AMB"]
    },
    {
       "id":68,
       "c":"",
       "sdp":"SDP000161",
       "times":"09:00:00",
       "days":"T & W",
       "name":"WILLIAMSON MALINDA",
       "site":"CV",
       "other":"",
       "full_address":"4333 COLLEGE AVE SD CA 92115",
       "formatted_address":"4333 COLLEGE AVE, SAN DIEGO, CA 92115, USA",
       "number":"4333",
       "street":"COLLEGE AVE",
       "city":"SAN DIEGO",
       "state":"CA",
       "zip":"92115",
       "longitude":-117.0654561,
       "latitude":32.7561907,
       "spoken_languages": ["English"],
       "banned_ethnic_group":[
          
       ],
       "banned_drivers":[
          
       ],
       "prefered_driver": null,
       "unsafe_for_female_driver":0,
       "unsafe_for_male_driver":0,
        "bording_time":300,
       "constraints" : ["AMB"]
    },
    {
       "id":69,
       "c":"",
       "sdp":"SDP000781",
       "times":"11:00:00",
       "days":"M-Y-W-TH-F",
       "name":"BRAVO JOSEFINA + COMPANION",
       "site":"CV",
       "other":"",
       "full_address":"1112 CORTE PRIMAVERA CHULA VISTA 91910",
       "formatted_address":"1112 CORTE PRIMAVERA, CHULA VISTA, CA 91910, USA",
       "number":"1112",
       "street":"CORTE PRIMAVERA",
       "city":"CHULA VISTA",
       "state":"CA",
       "zip":"91910",
       "longitude":-117.0103281,
       "latitude":32.6269842,
       "spoken_languages": ["English"],
       "banned_ethnic_group":[
          
       ],
       "banned_drivers":[
          
       ],
       "prefered_driver": null,
       "unsafe_for_female_driver":0,
       "unsafe_for_male_driver":0,
        "bording_time":300,
       "constraints" : ["AMB"]
    },
    {
       "id":70,
       "c":"",
       "sdp":"SDP437234",
       "times":"09:00:00",
       "days":"T-TH",
       "name":" ENRIQUEZ DE GUERRERO, MARIA",
       "site":"EL CAJON PACE",
       "other":"",
       "full_address":"891 W SAN YSIDRO BLVD SY CA 92173",
       "formatted_address":"891 W SAN YSIDRO BLVD, SAN DIEGO, CA 92173, USA",
       "number":"891",
       "street":"W SAN YSIDRO BLVD",
       "city":"SAN DIEGO",
       "state":"CA",
       "zip":"92173",
       "longitude":-117.0615484,
       "latitude":32.5598253,
       "spoken_languages": ["English"],
       "banned_ethnic_group":[
          
       ],
       "banned_drivers":[
          
       ],
       "prefered_driver": null,
       "unsafe_for_female_driver":0,
       "unsafe_for_male_driver":0,
        "bording_time":300,
       "constraints" : ["AMB"]
    },
    {
       "id":71,
       "c":"",
       "sdp":"SDP437233",
       "times":"09:00:00",
       "days":"M-T-W-TH-F",
       "name":"ROSAURO GUERRERO",
       "site":"EL CAJON PACE",
       "other":"",
       "full_address":"891 W SAN YSIDRO BLVD SY CA92173",
       "formatted_address":"",
       "number":"",
       "street":"",
       "city":"",
       "state":"",
       "zip":"",
       "longitude":0,
       "latitude":0,
       "spoken_languages": ["English"],
       "banned_ethnic_group":[
          
       ],
       "banned_drivers":[
          
       ],
       "prefered_driver": null,
       "unsafe_for_female_driver":0,
       "unsafe_for_male_driver":0,
        "bording_time":300,
       "constraints" : ["AMB"]
    },
    {
       "id":72,
       "c":"",
       "sdp":"SDP246598",
       "times":"08:00:00",
       "days":"M-W-F",
       "name":"PEREZ CERVANTEZ MARIA",
       "site":"EL CAJON PACE",
       "other":"",
       "full_address":"411 MORRISON ST SD CA 92102",
       "formatted_address":"411 MORRISON ST, SAN DIEGO, CA 92102, USA",
       "number":"411",
       "street":"MORRISON ST",
       "city":"SAN DIEGO",
       "state":"CA",
       "zip":"92102",
       "longitude":-117.1053102,
       "latitude":32.7099236,
       "spoken_languages": ["English"],
       "banned_ethnic_group":[
          
       ],
       "banned_drivers":[
          
       ],
       "prefered_driver": null,
       "unsafe_for_female_driver":0,
       "unsafe_for_male_driver":0,
        "bording_time":300,
       "constraints" : ["AMB"]
    },
    {
       "id":73,
       "c":"",
       "sdp":"SDP000896",
       "times":"11:00:00",
       "days":"T-TH",
       "name":"CHAVEZ CARDENAS AUREA",
       "site":"EL CAJON PACE",
       "other":"",
       "full_address":"4279 POPLAR ST SD CA 92105",
       "formatted_address":"4279 POPLAR ST, SAN DIEGO, CA 92105, USA",
       "number":"4279",
       "street":"POPLAR ST",
       "city":"SAN DIEGO",
       "state":"CA",
       "zip":"92105",
       "longitude":-117.1029201,
       "latitude":32.7365321,
       "spoken_languages": ["English"],
       "banned_ethnic_group":[
          
       ],
       "banned_drivers":[
          
       ],
       "prefered_driver": null,
       "unsafe_for_female_driver":0,
       "unsafe_for_male_driver":0,
        "bording_time":300,
       "constraints" : ["AMB"]
    },
    {
       "id":74,
       "c":"",
       "sdp":"SDP056220",
       "times":"11:00:00",
       "days":"M-T-W-TH-F",
       "name":"SANTIAGO CORDOCA GUILLERMINA",
       "site":"EL CAJON PACE",
       "other":"",
       "full_address":"364 5TH AVE APT 203 CV CA 91911",
       "formatted_address":"364 5TH AVE, CHULA VISTA, CA 91910, USA",
       "number":"364",
       "street":"5TH AVE",
       "city":"CHULA VISTA",
       "state":"CA",
       "zip":"91910",
       "longitude":-117.0874527,
       "latitude":32.6367576,
       "spoken_languages": ["English"],
       "banned_ethnic_group":[
          
       ],
       "banned_drivers":[
          
       ],
       "prefered_driver": null,
       "unsafe_for_female_driver":0,
       "unsafe_for_male_driver":0,
        "bording_time":300,
       "constraints" : ["AMB"]
    },
    {
       "id":75,
       "c":"",
       "sdp":"SDP015386",
       "times":"08:00:00",
       "days":"M-T-W-TH-F",
       "name":"MARTINEZ CARLOTA",
       "site":"EL CAJON PACE",
       "other":"",
       "full_address":"3656 CLAVELITA ST SD CA 92154",
       "formatted_address":"3656 CLAVELITA ST, SAN DIEGO, CA 92154, USA",
       "number":"3656",
       "street":"CLAVELITA ST",
       "city":"SAN DIEGO",
       "state":"CA",
       "zip":"92154",
       "longitude":-117.0569281,
       "latitude":32.5697518,
       "spoken_languages": ["English"],
       "banned_ethnic_group":[
          
       ],
       "banned_drivers":[
          
       ],
       "prefered_driver": null,
       "unsafe_for_female_driver":0,
       "unsafe_for_male_driver":0,
        "bording_time":300,
       "constraints" : ["AMB"]
    },
    {
       "id":76,
       "c":"",
       "sdp":"(SDP280093)",
       "times":"08:00:00",
       "days":"M-T-W-TH-F",
       "name":"REYES, JUAN CBLA",
       "site":"CV",
       "other":"HOLD",
       "full_address":"2605 E BEYER BLVD SAN YSIDRO, CA 92173",
       "formatted_address":"2605 E BEYER BLVD, SAN YSIDRO, CA 92173, USA",
       "number":"2605",
       "street":"E BEYER BLVD",
       "city":"SAN DIEGO",
       "state":"CA",
       "zip":"92173",
       "longitude":-117.0383307,
       "latitude":32.552234,
       "spoken_languages": ["English"],
       "banned_ethnic_group":[
          
       ],
       "banned_drivers":[
          
       ],
       "prefered_driver": 1,
       "unsafe_for_female_driver":0,
       "unsafe_for_male_driver":0,
        "bording_time":300,
       "constraints" : ["AMB"]
    },
    {
       "id":77,
       "c":"",
       "sdp":"SDP001073",
       "times":"09:00:00",
       "days":"M",
       "name":"CRUM ALICIA",
       "site":"CV",
       "other":"",
       "full_address":"201 E 12TH ST NC CA 91950",
       "formatted_address":"201 W 12TH ST, NATIONAL CITY, CA 91950, USA",
       "number":"201",
       "street":"W 12TH ST",
       "city":"NATIONAL CITY",
       "state":"CA",
       "zip":"91950",
       "longitude":-117.1076485,
       "latitude":32.6717974,
       "spoken_languages": ["English"],
       "banned_ethnic_group":[
          
       ],
       "banned_drivers":[
          
       ],
       "prefered_driver": null,
       "unsafe_for_female_driver":0,
       "unsafe_for_male_driver":0,
        "bording_time":300,
       "constraints" : ["AMB"]
    },
    {
       "id":78,
       "c":"",
       "sdp":"SDP000345",
       "times":"09:00:00",
       "days":"M",
       "name":"CABRAL ADELINA",
       "site":"CV",
       "other":"",
       "full_address":"731 G ST CV CA 91910",
       "formatted_address":"731 G ST, CHULA VISTA, CA 91910, USA",
       "number":"731",
       "street":"G ST",
       "city":"CHULA VISTA",
       "state":"CA",
       "zip":"91910",
       "longitude":-117.0958301,
       "latitude":32.6343925,
       "spoken_languages": ["English"],
       "banned_ethnic_group":[
          
       ],
       "banned_drivers":[
          
       ],
       "prefered_driver": null,
       "unsafe_for_female_driver":0,
       "unsafe_for_male_driver":0,
        "bording_time":300,
       "constraints" : ["AMB"]
    },
    {
       "id":79,
       "c":"",
       "sdp":"SDP316885",
       "times":"09:00:00",
       "days":"TH-F",
       "name":"GUEVARRA SORAIDA",
       "site":"CV",
       "other":"",
       "full_address":"253 RANCHO DR CV CA 91911",
       "formatted_address":"253 RANCHO DR, CHULA VISTA, CA 91911, USA",
       "number":"253",
       "street":"RANCHO DR",
       "city":"CHULA VISTA",
       "state":"CA",
       "zip":"91911",
       "longitude":-117.0405679,
       "latitude":32.5920658,
       "spoken_languages": ["English"],
       "banned_ethnic_group":[
          
       ],
       "banned_drivers":[
          
       ],
       "prefered_driver": null,
       "unsafe_for_female_driver":0,
       "unsafe_for_male_driver":0,
        "bording_time":300,
       "constraints" : ["AMB"]
    },
    {
       "id":80,
       "c":"",
       "sdp":"SDP316892",
       "times":"09:00:00",
       "days":"TH-F",
       "name":"GUEVARRA RAYMUNDO",
       "site":"CV",
       "other":"",
       "full_address":"253 RANCHO DR CV CA 91911",
       "formatted_address":"253 RANCHO DR, CHULA VISTA, CA 91911, USA",
       "number":"253",
       "street":"RANCHO DR",
       "city":"CHULA VISTA",
       "state":"CA",
       "zip":"91911",
       "longitude":-117.0405679,
       "latitude":32.5920658,
       "spoken_languages": ["English"],
       "banned_ethnic_group":[
          
       ],
       "banned_drivers":[
          
       ],
       "prefered_driver": null,
       "unsafe_for_female_driver":0,
       "unsafe_for_male_driver":0,
        "bording_time":300,
       "constraints" : ["AMB"]
    },
    {
       "id":81,
       "c":"",
       "sdp":"SDP001053",
       "times":"09:00:00",
       "days":"W",
       "name":"HERNANDEZ RICARDI",
       "site":"CV",
       "other":"",
       "full_address":"2680 MAIN ST SD CA 92113",
       "formatted_address":"2680 MAIN ST, SAN DIEGO, CA 92113, USA",
       "number":"2680",
       "street":"MAIN ST",
       "city":"SAN DIEGO",
       "state":"CA",
       "zip":"92113",
       "longitude":-117.1364136,
       "latitude":32.6930126,
       "spoken_languages": ["English"],
       "banned_ethnic_group":[
          
       ],
       "banned_drivers":[
          
       ],
       "prefered_driver": null,
       "unsafe_for_female_driver":0,
       "unsafe_for_male_driver":0,
        "bording_time":300,
       "constraints" : ["AMB"]
    },
    {
       "id":82,
       "c":"",
       "sdp":"SDP072912",
       "times":"09:00:00",
       "days":"M-W-F",
       "name":"HERRERA DE RUELAS, FRANCISCA",
       "site":"CV",
       "other":"",
       "full_address":"688 SEA VALE ST PAT B CHULA VISTA CA 91910",
       "formatted_address":"688 SEA VALE ST B, CHULA VISTA, CA 91910, USA",
       "number":"688",
       "street":"SEA VALE ST",
       "city":"CHULA VISTA",
       "state":"CA",
       "zip":"91910",
       "longitude":-117.099243,
       "latitude":32.6462171,
       "spoken_languages": ["English"],
       "banned_ethnic_group":[
          
       ],
       "banned_drivers":[
          
       ],
       "prefered_driver": null,
       "unsafe_for_female_driver":0,
       "unsafe_for_male_driver":0,
        "bording_time":300,
       "constraints" : ["AMB"]
    },
    {
       "id":83,
       "c":"",
       "sdp":"SDP021509",
       "times":"09:00:00",
       "days":"W",
       "name":"RUELAS MANUEL",
       "site":"CV",
       "other":"",
       "full_address":"688 SEA VALE ST CHULA VISTA 91910",
       "formatted_address":"688 SEA VALE ST B, CHULA VISTA, CA 91910, USA",
       "number":"688",
       "street":"SEA VALE ST",
       "city":"CHULA VISTA",
       "state":"CA",
       "zip":"91910",
       "longitude":-117.099243,
       "latitude":32.6462171,
       "spoken_languages": ["English"],
       "banned_ethnic_group":[
          
       ],
       "banned_drivers":[
          
       ],
       "prefered_driver": null,
       "unsafe_for_female_driver":0,
       "unsafe_for_male_driver":0,
        "bording_time":300,
       "constraints" : ["AMB"]
    },
    {
       "id":84,
       "c":"",
       "sdp":"(SDP000499)",
       "times":"09:00:00",
       "days":"W-TH",
       "name":"LAMAS TORRES, BERTHA",
       "site":"CV",
       "other":"",
       "full_address":"3527 TRIDLE WAY SAN YSIDRO, CA 92173",
       "formatted_address":"3527 TRIDLE WAY, SAN DIEGO, CA 92173, USA",
       "number":"3527",
       "street":"TRIDLE WAY",
       "city":"SAN DIEGO",
       "state":"CA",
       "zip":"92173",
       "longitude":-117.0536869,
       "latitude":32.5464283,
       "spoken_languages": ["English"],
       "banned_ethnic_group":[
          
       ],
       "banned_drivers":[
          
       ],
       "prefered_driver": null,
       "unsafe_for_female_driver":0,
       "unsafe_for_male_driver":0,
        "bording_time":300,
       "constraints" : ["AMB"]
    },
    {
       "id":85,
       "c":"",
       "sdp":"SDP046139",
       "times":"11:00:00",
       "days":"M-T-W-TH-F",
       "name":"GONZALEZ, MARIA ",
       "site":"EL CAJON PACE",
       "other":"",
       "full_address":"960 CORDOVA DR CHULA VISTA 91910",
       "formatted_address":"960 CORDOVA DR, CHULA VISTA, CA 91910, USA",
       "number":"960",
       "street":"CORDOVA DR",
       "city":"CHULA VISTA",
       "state":"CA",
       "zip":"91910",
       "longitude":-117.013593,
       "latitude":32.6321577,
       "spoken_languages": ["English"],
       "banned_ethnic_group":[
          
       ],
       "banned_drivers":[
          
       ],
       "prefered_driver": null,
       "unsafe_for_female_driver":0,
       "unsafe_for_male_driver":0,
        "bording_time":300,
       "constraints" : ["AMB"]
    },
    {
       "id":86,
       "c":"",
       "sdp":"SDP341941",
       "times":"11:00:00",
       "days":"M-W",
       "name":"VALDEZ, MARIANA",
       "site":"EL CAJON PACE",
       "other":"",
       "full_address":"311 BEECH AVE CHULA VISTA 91910",
       "formatted_address":"311 BEECH AVE, CHULA VISTA, CA 91910, USA",
       "number":"311",
       "street":"BEECH AVE",
       "city":"CHULA VISTA",
       "state":"CA",
       "zip":"91910",
       "longitude":-117.089673,
       "latitude":32.63792,
       "spoken_languages": ["English"],
       "banned_ethnic_group":[
          
       ],
       "banned_drivers":[
          
       ],
       "prefered_driver": null,
       "unsafe_for_female_driver":0,
       "unsafe_for_male_driver":0,
        "bording_time":300,
       "constraints" : ["AMB"]
    }
 ]
 