[
    {
    "id":1,
    "c":"AMB",
    "sdp":"SDP004392",
    "times":"07:30:00",
    "days":"M-T-W-TH-F",
    "name":"RODNA, MC CARROLL",
    "gender": "FEMALE",
    "site":"NORTH COUNTY",
    "destination":"1840 WEST DR, VISTA, CA, 92083",
    "other":"",
    "full_address":"120 VIA CANTEBRIA, ENCINITAS, CA, 92024",
    "formatted_address":"120 VIA CANTEBRIA ENCINITAS, CA 92024, USA",
    "number":"120",
    "street":"VIA CANTEBRIA",
    "city":"ENCINITAS",
    "state":"CA",
    "zip":"92024",
    "longitude":-117.26774327441107,
    "latitude":33.0465044380038, 
    "spoken_languages": ["ENGLISH"],
    "banned_ethnic_group":[
       
    ],
    "banned_drivers":[
       
    ],
    "prefered_driver": null,
    "unsafe_for_female_driver":0,
    "unsafe_for_male_driver":0,
    "bording_time":420,
    "constraints" : ["CBLA"], 
    "pickup_first": false,
    "on_hold": false
 },
 {
    "id":2,
    "c":"AMB",
    "sdp":"SDP003323",
    "times":"07:30:00",
    "days":"T-TH-F",
    "name":"SHEPARD, LIBERTY ",
    "gender": "FEMALE",
    "site":"NORTH COUNTY",
    "destination":"1840 WEST DR, VISTA, CA, 92083",
    "other":"",
    "full_address":"757 BREEZE HILL RD, APT 813, VISTA, CA, 92081",
    "formatted_address":"757 BREEZE HILL RD VISTA, CA 92081, USA",
    "number":"757",
    "street":"BREEZE HILL RD",
    "city":"VISTA",
    "state":"CA",
    "zip":"92081",
    "longitude":-117.25566894557082,
    "latitude":33.18908568891473, 
    "spoken_languages": ["ENGLISH"],
    "banned_ethnic_group":[
       
    ],
    "banned_drivers":[
       
    ],
    "prefered_driver": null,
    "unsafe_for_female_driver":0,
    "unsafe_for_male_driver":0,
    "bording_time":420,
    "constraints" : ["AMB"],
    "pickup_first": false,
    "on_hold": false
 },
 {
    "id":3,
    "c":"WCH",
    "sdp":"SDP001425",
    "times":"08:30:00",
    "days":"M-T-W-TH-F",
    "name":"AVILA, MARIA",
    "gender": "FEMALE",
    "site":"NORTH COUNTY",
    "destination":"1840 WEST DR, VISTA, CA, 92083",
    "other":"",
    "full_address":"943 OAK AVE APT B, CARLSBAD, CA, 92008",
    "formatted_address":"943 OAK AVE CARLSBAD, CA 92008, USA",
    "number":"943",
    "street":"OAK AVE",
    "city":"CARLSBAD",
    "state":"CA",
    "zip":"92008",
    "longitude":-117.34282646091499,
    "latitude":33.161382265953115, 
    "spoken_languages": ["ENGLISH"],
    "banned_ethnic_group":[
       
    ],
    "banned_drivers":[
       
    ],
    "prefered_driver": null,
    "unsafe_for_female_driver":0,
    "unsafe_for_male_driver":0,
    "bording_time":420,
    "constraints" : ["FRAGILE"],
    "pickup_first": false,
    "on_hold": false
 },
 {
    "id":4,
    "c":"AMB",
    "sdp":"SDP565585",
    "times":"07:30:00",
    "days":"M-T-W-TH-F",
    "name":"BECERRA, MARCIAL",
    "gender": "MALE",
    "site":"NORTH COUNTY",
    "destination":"1840 WEST DR, VISTA, CA, 92083",
    "other":"",
    "full_address":"525 W EL NORTE PKWY, SPACE #80, ESCONDIDO, CA, 92026",
    "formatted_address":"525 W EL NORTE PKWY ESCONDIDO, CA 92026, USA",
    "number":"525",
    "street":"W EL NORTE PKWY",
    "city":"ESCONDIDO",
    "state":"CA",
    "zip":"92026",
    "longitude":-117.10073408790078,
    "latitude": 33.14243574179623, 
    "spoken_languages": ["ENGLISH"],
    "banned_ethnic_group":[
       
    ],
    "banned_drivers":[
       
    ],
    "prefered_driver": null,
    "unsafe_for_female_driver":1,
    "unsafe_for_male_driver":0,
    "bording_time":420,
    "constraints" : ["AMB"],
    "pickup_first": false,
    "on_hold": false
 },
 {
    "id":5,
    "c":"AMB",
    "sdp":"SDP003453",
    "times":"07:30:00",
    "days":"M-T-W-TH-F",
    "name":"SALAZAR, EMMA",
    "gender": "FEMALE",
    "site":"NORTH COUNTY",
    "destination":"1840 WEST DR, VISTA, CA, 92083",
    "other":"",
    "full_address":"914 N MAIN AVE, FALLBROOK, CA, 92028",
    "formatted_address":"914 N MAIN AVE FALLBROOK, CA 92028, USA",
    "number":"914",
    "street":"N MAIN AVE",
    "city":"FALLBROOK",
    "state":"CA",
    "zip":"92028",
    "longitude":-117.25148141672874,
    "latitude":33.390166774809586, 
    "spoken_languages": ["ENGLISH"],
    "banned_ethnic_group":[
       
    ],
    "banned_drivers":[
       
    ],
    "prefered_driver": null,
    "unsafe_for_female_driver":0,
    "unsafe_for_male_driver":0,
    "bording_time":420,
    "constraints" : ["AMB","CBLA"],
    "pickup_first": false,
    "on_hold": false
 },
 {
    "id":6,
    "c":"WCH",
    "sdp":"SDP004091",
    "times":"07:30:00",
    "days":"M-T-W-TH",
    "name":"ANDERSON, GLORIA M",
    "gender": "FEMALE",
    "site":"NORTH COUNTY",
    "destination":"1840 WEST DR, VISTA, CA, 92083",
    "other":"",
    "full_address":"5751 JEFFRIES RANCH RD, OCEANSIDE, CA, 92057",
    "formatted_address":"5751 JEFFRIES RANCH RD OCEANSIDE, CA 92057, USA",
    "number":"5751",
    "street":"JEFFRIES RANCH RD",
    "city":"OCEANSIDE",
    "state":"CA",
    "zip":"92057",
    "longitude":-117.25951613207627,
    "latitude":33.25215918893655, 
    "spoken_languages": ["ENGLISH"],
    "banned_ethnic_group":[
       
    ],
    "banned_drivers":[
       
    ],
    "prefered_driver": null,
    "unsafe_for_female_driver":0,
    "unsafe_for_male_driver":0,
    "bording_time":420,
    "constraints" : ["WC","CBLA-D"],
    "pickup_first": false,
    "on_hold": false
 },
 {
    "id":7,
    "c":"AMB",
    "sdp":"SDP000906",
    "times":"07:30:00",
    "days":"M-T",
    "name":"PALACIOS, PEDRO",
    "gender": "MALE",
    "site":"NORTH COUNTY",
    "destination":"1840 WEST DR, VISTA, CA, 92083",
    "other":"",
    "full_address":"10794 CARMEL MNT RD, APT A, SAN DIEGO, CA, 92129",
    "formatted_address":"10794 CARMEL MNT RD SAN DIEGO, CA 92129, USA",
    "number":"10794",
    "street":"CARMEL MNT RD",
    "city":"SAN DIEGO",
    "state":"CA",
    "zip":"92129",
    "longitude": -117.09474733208499,
    "latitude": 32.971254987031365, 
    "spoken_languages": ["ENGLISH"],
    "banned_ethnic_group":[
       
    ],
    "banned_drivers":[
       
    ],
    "prefered_driver": null,
    "unsafe_for_female_driver":0,
    "unsafe_for_male_driver":0,
    "bording_time":420,
    "constraints" : ["AMB"],
    "pickup_first": false,
    "on_hold": false
 },
 {
    "id":8,
    "c":"AMB",
    "sdp":"SDP000905",
    "times":"07:30:00",
    "days":"M-T",
    "name":"PALACIOS, SUSANA",
    "gender": "FEMALE",
    "site":"NORTH COUNTY",
    "destination":"1840 WEST DR, VISTA, CA, 92083",
    "other":"",
    "full_address":"10794 CARMEL MNT RD, APT A, SAN DIEGO, CA, 92129",
    "formatted_address":"10794 CARMEL MNT RD SAN DIEGO, CA 92129, USA",
    "number":"10794",
    "street":"CARMEL MNT RD",
    "city":"SAN DIEGO",
    "state":"CA",
    "zip":"92129",
    "longitude": -117.09474733208499,
    "latitude": 32.971254987031365, 
    "spoken_languages": ["ENGLISH"],
    "banned_ethnic_group":[
       
    ],
    "banned_drivers":[
       
    ],
    "prefered_driver": null,
    "unsafe_for_female_driver":0,
    "unsafe_for_male_driver":0,
    "bording_time":420,
    "constraints" : ["AMB"],
    "pickup_first": false,
    "on_hold": false
 },
 {
    "id":9,
    "c":"AMB",
    "sdp":"SDP004196",
    "times":"07:30:00",
    "days":"M-W-TH-F",
    "name":"SANCHEZ, NIDIA",
    "gender": "FEMALE",
    "site":"NORTH COUNTY",
    "destination":"1840 WEST DR, VISTA, CA, 92083",
    "other":"",
    "full_address":"229 E 14TH AVE, ESCONDIDO, CA, 92025",
    "formatted_address":"229 E 14TH AVE ESCONDIDO, CA 92025, USA",
    "number":"229",
    "street":"E 14TH AVE",
    "city":"ESCONDIDO",
    "state":"CA",
    "zip":"92025",
    "longitude": -117.07105901673755,
    "latitude": 33.11095927952028, 
    "spoken_languages": ["ENGLISH"],
    "banned_ethnic_group":[
       
    ],
    "banned_drivers":[
       
    ],
    "prefered_driver": null,
    "unsafe_for_female_driver":0,
    "unsafe_for_male_driver":0,
    "bording_time":420,
    "constraints" : ["AMB","CBLA-A-D"],
    "pickup_first": false,
    "on_hold": false
 },
 {
    "id":10,
    "c":"AMB",
    "sdp":"SDP002477",
    "times":"07:30:00",
    "days":"M-W-TH-F",
    "name":"ROONEY, HELEN",
    "gender": "FEMALE",
    "site":"NORTH COUNTY",
    "destination":"1840 WEST DR, VISTA, CA, 92083",
    "other":"",
    "full_address":"811 E 4TH AVE, ESCONDIDO, CA, 92025",
    "formatted_address":"811 E 4TH AVE ESCONDIDO, CA 92025, USA",
    "number":"811",
    "street":"E 4TH AVE",
    "city":"ESCONDIDO",
    "state":"CA",
    "zip":"92025",
    "longitude": -117.06965825906553,
    "latitude": 33.12253798253442, 
    "spoken_languages": ["ENGLISH"],
    "banned_ethnic_group":[
       
    ],
    "banned_drivers":[
       
    ],
    "prefered_driver": null,
    "unsafe_for_female_driver":0,
    "unsafe_for_male_driver":0,
    "bording_time":420,
    "constraints" : ["AMB","CBLA"],
    "pickup_first": false,
    "on_hold": false
 },
 {
    "id":11,
    "c":"AMB",
    "sdp":"SDP001895",
    "times":"07:30:00",
    "days":"M-W-TH-F",
    "name":"RAYGOZA, RICARDO",
    "gender": "MALE",
    "site":"NORTH COUNTY",
    "destination":"1840 WEST DR, VISTA, CA, 92083",
    "other":"",
    "full_address":"2041 CACTUS PL, ESCONDIDO, CA, 92027",
    "formatted_address":"2041 CACTUS PL ESCONDIDO, CA 92027, USA",
    "number":"2041",
    "street":"CACTUS PL",
    "city":"ESCONDIDO",
    "state":"CA",
    "zip":"92027",
    "longitude": -117.05388461644877,
    "latitude": 33.14383000549773, 
    "spoken_languages": ["ENGLISH"],
    "banned_ethnic_group":[
       
    ],
    "banned_drivers":[
       
    ],
    "prefered_driver": null,
    "unsafe_for_female_driver":0,
    "unsafe_for_male_driver":0,
    "bording_time":420,
    "constraints" : ["AMB"],
    "pickup_first": false,
    "on_hold": false
 },
 {
    "id":12,
    "c":"AMB",
    "sdp":"SDP000255",
    "times":"08:00:00",
    "days":"M-T-W-TH-F",
    "name":"ORTIZ, JOSE",
    "gender": "MALE",
    "site":"NORTH COUNTY",
    "destination":"1840 WEST DR, VISTA, CA, 92083",
    "other":"",
    "full_address":"221 E ONEIDA ST CHULA VISTA, CA 91911",
    "formatted_address":"221 E ONEIDA ST, CHULA VISTA, CA 91911, USA",
    "number":"221",
    "street":"E ONEIDA ST",
    "city":"CHULA VISTA",
    "state":"CA",
    "zip":"91911",
    "longitude":-117.0464227,
    "latitude":32.6148208,
    "spoken_languages": ["ENGLISH"],
    "banned_ethnic_group":[
       
    ],
    "banned_drivers":[
       
    ],
    "prefered_driver": null,
    "unsafe_for_female_driver":0,
    "unsafe_for_male_driver":0,
    "bording_time":420,
    "constraints" : ["AMB"],
    "pickup_first": false,
    "on_hold": false
 },{
    "id":13,
    "c":"WCH",
    "sdp":"SDP004257",
    "times":"07:30:00",
    "days":"M-T-W-TH-F",
    "name":"VICTORIA, JOSE",
    "gender": "MALE",
    "site":"NORTH COUNTY",
    "destination":"1840 WEST DR, VISTA, CA, 92083",
    "other":"",
    "full_address":"2208 VILLAGE RD, ESCONDIDO, CA, 92026",
    "formatted_address":"2208 VILLAGE RD ESCONDIDO, CA 92026, USA",
    "number":"2208",
    "street":"VILLAGE RD",
    "city":"ESCONDIDO",
    "state":"CA",
    "zip":"92026",
    "longitude": -117.0998381877829,
    "latitude": 33.15986568772597, 
    "spoken_languages": ["ENGLISH"],
    "banned_ethnic_group":[
       
    ],
    "banned_drivers":[
       
    ],
    "prefered_driver": null,
    "unsafe_for_female_driver":0,
    "unsafe_for_male_driver":0,
    "bording_time":420,
    "constraints" : ["WC","CBLA"],
    "pickup_first": false,
    "on_hold": false
 },
 {
    "id":14,
    "c":"AMB",
    "sdp":"SDP004556",
    "times":"08:30:00",
    "days":"M-T-W-TH-F",
    "name":"DURBY, JOSE",
    "gender": "MALE",
    "site":"NORTH COUNTY",
    "destination":"1840 WEST DR, VISTA, CA, 92083",
    "other":"",
    "full_address":"16226 CAMDEN CIR, SAN DIEGO, CA, 92127",
    "formatted_address":"16226 CAMDEN CIR SAN DIEGO, CA 92127, USA",
    "number":"16226",
    "street":"CAMDEN CIR",
    "city":"SAN DIEGO",
    "state":"CA",
    "zip":"92127",
    "longitude": -117.12434893196719,
    "latitude": 33.01753507810385, 
    "spoken_languages": ["ENGLISH"],
    "banned_ethnic_group":[
       
    ],
    "banned_drivers":[
       
    ],
    "prefered_driver": null,
    "unsafe_for_female_driver":0,
    "unsafe_for_male_driver":1,
    "bording_time":420,
    "constraints" : ["AMB"],
    "pickup_first": false,
    "on_hold": false
 },
 {
    "id":15,
    "c":"AMB",
    "sdp":"SDP002591",
    "times":"08:30:00",
    "days":"M-W-F",
    "name":"GARCIA, SARA",
    "gender": "FEMALE",
    "site":"NORTH COUNTY",
    "destination":"1840 WEST DR, VISTA, CA, 92083",
    "other":"",
    "full_address":"1252 N FIG ST, ESCONDIDO, CA, 92026",
    "formatted_address":"1252 N FIG ST ESCONDIDO, CA 92026, USA",
    "number":"1252",
    "street":"N FIG ST",
    "city":"ESCONDIDO",
    "state":"CA",
    "zip":"92026",
    "longitude": -117.0807046040329,
    "latitude": 33.142385309245675, 
    "spoken_languages": ["ENGLISH"],
    "banned_ethnic_group":[
       
    ],
    "banned_drivers":[
       
    ],
    "prefered_driver": null,
    "unsafe_for_female_driver":0,
    "unsafe_for_male_driver":0,
    "bording_time":420,
    "constraints" : ["AMB","CBLA"],
    "pickup_first": false,
    "on_hold": false
 },
 {
    "id":16,
    "c":"AMB",
    "sdp":"SDP003188",
    "times":"08:30:00",
    "days":"M-T-W-TH-F",
    "name":"ESCUADRA, LUCIA",
    "gender": "FEMALE",
    "site":"NORTH COUNTY",
    "destination":"1840 WEST DR, VISTA, CA, 92083",
    "other":"",
    "full_address":"2727 CASA LINDA WAY, SAN MARCOS, CA, 92069",
    "formatted_address":"2727 CASA LINDA WAY SAN MARCOS, CA 92069, USA",
    "number":"2727",
    "street":"CASA LINDA WAY",
    "city":"SAN MARCOS",
    "state":"CA",
    "zip":"92069",
    "longitude": -117.20553108868815,
    "latitude": 33.159579951575715, 
    "spoken_languages": ["ENGLISH"],
    "banned_ethnic_group":[
       
    ],
    "banned_drivers":[
       
    ],
    "prefered_driver": null,
    "unsafe_for_female_driver":0,
    "unsafe_for_male_driver":0,
    "bording_time":420,
    "constraints" : ["AMB","CBLA-C"],
    "pickup_first": false,
    "on_hold": false
 },
 {
    "id":17,
    "c":"AMB",
    "sdp":"SDP004246",
    "times":"08:30:00",
    "days":"M-W-F",
    "name":"CARDENAS, MARIA",
    "gender": "FEMALE",
    "site":"NORTH COUNTY",
    "destination":"1840 WEST DR, VISTA, CA, 92083",
    "other":"",
    "full_address":"2550 E VALLEY PKWY, SPACE 98, ESCONDIDO, CA, 92027",
    "formatted_address":"2550 E VALLEY PKWY, ESCONDIDO, CA 92027, USA",
    "number":"2550",
    "street":"E VALLEY PKWY",
    "city":"ESCONDIDO",
    "state":"CA",
    "zip":"92027",
    "longitude": -117.04388994636082,
    "latitude": 33.144620437212986, 
    "spoken_languages": ["ENGLISH"],
    "banned_ethnic_group":[
       
    ],
    "banned_drivers":[
       
    ],
    "prefered_driver": null,
    "unsafe_for_female_driver":0,
    "unsafe_for_male_driver":0,
    "bording_time":420,
    "constraints" : ["AMB"],
    "pickup_first": false,
    "on_hold": false
 },
 {
   "id":18,
   "c":"AMB",
   "sdp":"SDP002698",
   "times":"08:30:00",
   "days":"M-T-TH-F",
   "name":"NOGUEDA, RAFAEL",
   "gender": "MALE",
   "site":"NORTH COUNTY",
   "destination":"1840 WEST DR, VISTA, CA 92083",
   "other":"",
   "full_address":"6419 TOBRIA TERRACE, APT 105, CARLSBAD, CA 92011",
   "formatted_address":"6419 TOBRIA TERRACE CARLSBAD, CA 92011, USA",
   "number":"6419",
   "street":"TOBRIA TERRACE",
   "city":"CARLSBAD",
   "state":"CA",
   "zip":"92011",
   "longitude": -117.2723205441672,
   "latitude": 33.11470649207113,
   "spoken_languages": ["ENGLISH"],
   "banned_ethnic_group":[
      
   ],
   "banned_drivers":[
      
   ],
   "prefered_driver": null,
   "unsafe_for_female_driver":0,
   "unsafe_for_male_driver":0,
   "bording_time":420,
   "constraints" : ["AMB", "CBLA-C"],
   "pickup_first": false,
   "on_hold": false
},
{
    "id":19,
    "c":"AMB",
    "sdp":"SDP001889",
    "times":"08:30:00",
    "days":"M-T-W-TH-F",
    "name":"SOSA DE SANDOVAL, ANGELINA",
    "gender": "FEMALE",
    "site":"NORTH COUNTY",
    "destination":"1840 WEST DR, VISTA, CA, 92083",
    "other":"",
    "full_address":"529 ROLLING HILLS RD, VISTA, CA, 92083",
    "formatted_address":"529 ROLLING HILLS RD VISTA, CA 92083, USA",
    "number":"529",
    "street":"ROLLING HILLS RD",
    "city":"VISTA",
    "state":"CA",
    "zip":"92083",
    "longitude": -117.22544404635953,
    "latitude": 33.175942813014565, 
    "spoken_languages": ["ENGLISH"],
    "banned_ethnic_group":[
       
    ],
    "banned_drivers":[
       
    ],
    "prefered_driver": null,
    "unsafe_for_female_driver":0,
    "unsafe_for_male_driver":0,
    "bording_time":420,
    "constraints" : ["AMB", "CBLA-A"],
    "pickup_first": false,
    "on_hold": false
 },
 {
   "id":20,
   "c":"AMB",
   "sdp":"SDP001890",
   "times":"08:30:00",
   "days":"M-T-W-TH-F",
   "name":"SANDOVAL, MARTIN JESUS",
   "gender": "MALE",
   "site":"NORTH COUNTY",
   "destination":"1840 WEST DR, VISTA, CA, 92083",
   "other":"",
   "full_address":"529 ROLLING HILLS RD, VISTA, CA, 92083",
   "formatted_address":"529 ROLLING HILLS RD VISTA, CA 92083, USA",
   "number":"529",
   "street":"ROLLING HILLS RD",
   "city":"VISTA",
   "state":"CA",
   "zip":"92083",
   "longitude": -117.22544404635953,
   "latitude": 33.175942813014565, 
   "spoken_languages": ["ENGLISH"],
   "banned_ethnic_group":[
      
   ],
   "banned_drivers":[
      
   ],
   "prefered_driver": null,
   "unsafe_for_female_driver":0,
   "unsafe_for_male_driver":0,
   "bording_time":420,
   "constraints" : ["AMB"],
   "pickup_first": false,
   "on_hold": false
},
 {
    "id":21,
    "c":"AMB",
    "sdp":"SDP003349",
    "times":"08:30:00",
    "days":"M-T-W-TH-F",
    "name":"TORRES, MAURICIA",
    "gender": "FEMALE",
    "site":"NORTH COUNTY",
    "destination":"1840 WEST DR, VISTA, CA, 92083",
    "other":"",
    "full_address":"845 PORTER ST, FALLBROOK, CA, 92028",
    "formatted_address":"845 PORTER ST FALLBROOK, CA 92028, USA",
    "number":"845",
    "street":"PORTER ST",
    "city":"FALLBROOK",
    "state":"CA",
    "zip":"92028",
    "longitude": -117.24105645984275,
    "latitude": 33.38925233456229, 
    "spoken_languages": ["ENGLISH"],
    "banned_ethnic_group":[
       
    ],
    "banned_drivers":[
       
    ],
    "prefered_driver": null,
    "unsafe_for_female_driver":0,
    "unsafe_for_male_driver":0,
    "bording_time":420,
    "constraints" : ["AMB"],
    "pickup_first": false,
    "on_hold": false
 },
 {
   "id":22,
   "c":"AMB",
   "sdp":"SDP001866",
   "times":"08:30:00",
   "days":"M-T-W-TH-F",
   "name":"HERNANDEZ, ELVIRA",
   "gender": "FEMALE",
   "site":"NORTH COUNTY",
   "destination":"1840 WEST DR, VISTA, CA 92083",
   "other":"",
   "full_address":"1429 VIA ENCINOS DR, FALLBROOK, CA 92028",
   "formatted_address":"1429 VIA ENCINOS DR FALLBROOK, CA 92028, USA",
   "number":"1429",
   "street":"VIA ENCINOS DR",
   "city":"FALLBROOK",
   "state":"CA",
   "zip":"92028",
   "longitude":-117.22866344416298,
   "latitude": 33.3245405046965, 
   "spoken_languages": ["ENGLISH"],
   "banned_ethnic_group":[
      
   ],
   "banned_drivers":[
      
   ],
   "prefered_driver": null,
   "unsafe_for_female_driver":0,
   "unsafe_for_male_driver":0,
   "bording_time":420,
   "constraints" : ["AMB","CBLA"],
   "pickup_first": false,
   "on_hold": false
},
 {
    "id":23,
    "c":"AMB",
    "sdp":"SDP002686",
    "times":"08:30:00",
    "days":"M-TH-F",
    "name":"CHAVEZ TORRES, MARIA GUADALUPE",
    "gender": "FEMALE",
    "site":"NORTH COUNTY",
    "destination":"1840 WEST DR, VISTA, CA, 92083",
    "other":"",
    "full_address":"412 MASON RD, VISTA, CA, 92084",
    "formatted_address":"412 MASON RD VISTA, CA 92084, USA",
    "number":"412",
    "street":"MASON RD",
    "city":"VISTA",
    "state":"CA",
    "zip":"92084",
    "longitude": -117.23765138963095,
    "latitude": 33.244898485832245, 
    "spoken_languages": ["ENGLISH"],
    "banned_ethnic_group":[
       
    ],
    "banned_drivers":[
       
    ],
    "prefered_driver": null,
    "unsafe_for_female_driver":0,
    "unsafe_for_male_driver":0,
    "bording_time":420,
    "constraints" : ["AMB","CBLA"],
    "pickup_first": false,
    "on_hold": false
 },
 {
    "id":24,
    "c":"AMB",
    "sdp":"SDP004407",
    "times":"08:30:00",
    "days":"M-W-TH-F",
    "name":"DIEGO, CELIA",
    "gender": "MALE",
    "site":"NORTH COUNTY",
    "destination":"1840 WEST DR, VISTA, CA, 92083",
    "other":"",
    "full_address":"222 HOLIDAY WAY, OCEANSIDE, CA, 92057",
    "formatted_address":"222 HOLIDAY WAY OCEANSIDE, CA 92057, USA",
    "number":"222",
    "street":"HOLIDAY WAY",
    "city":"OCEANSIDE",
    "state":"CA",
    "zip":"92057",
    "longitude": -117.31568464360058,
    "latitude": 33.24797946233911, 
    "spoken_languages": ["ENGLISH"],
    "banned_ethnic_group":[
       
    ],
    "banned_drivers":[
       
    ],
    "prefered_driver": null,
    "unsafe_for_female_driver":0,
    "unsafe_for_male_driver":0,
    "bording_time":420,
    "constraints" : ["AMB", "CBLA-D"],
    "pickup_first": false,
    "on_hold": false
 },
 {
    "id":25,
    "c":"AMB",
    "sdp":"SDP004407",
    "times":"10:30:00",
    "days":"T",
    "name":"DIEGO, CELIA",
    "gender": "MALE",
    "site":"NORTH COUNTY",
    "destination":"1840 WEST DR, VISTA, CA, 92083",
    "other":"",
    "full_address":"222 HOLIDAY WAY, OCEANSIDE, CA, 92057",
    "formatted_address":"222 HOLIDAY WAY OCEANSIDE, CA 92057, USA",
    "number":"222",
    "street":"HOLIDAY WAY",
    "city":"OCEANSIDE",
    "state":"CA",
    "zip":"92057",
    "longitude": -117.31568464360058,
    "latitude": 33.24797946233911, 
    "spoken_languages": ["ENGLISH"],
    "banned_ethnic_group":[
       
    ],
    "banned_drivers":[
       
    ],
    "prefered_driver": null,
    "unsafe_for_female_driver":0,
    "unsafe_for_male_driver":0,
    "bording_time":420,
    "constraints" : ["AMB", "CBLA-D"],
    "pickup_first": false,
    "on_hold": false
 },
 {
    "id":26,
    "c":"AMB",
    "sdp":"SDP003446",
    "times":"08:30:00",
    "days":"M-W-TH-F",
    "name":"CLARK, STEPHIE",
    "gender": "FEMALE",
    "site":"NORTH COUNTY",
    "destination":"1840 WEST DR, VISTA, CA, 92083",
    "other":"",
    "full_address":"140 STEVEN LN, #140, OCEANSIDE, CA, 92058",
    "formatted_address":"140 STEVEN LN OCEANSIDE, CA 92058, USA",
    "number":"140",
    "street":"STEVEN LN",
    "city":"OCEANSIDE",
    "state":"CA",
    "zip":"92058",
    "longitude": -117.32341618778041,
    "latitude": 33.23074233510528, 
    "spoken_languages": ["ENGLISH"],
    "banned_ethnic_group":[
       
    ],
    "banned_drivers":[
       
    ],
    "prefered_driver": null,
    "unsafe_for_female_driver":0,
    "unsafe_for_male_driver":0,
    "bording_time":420,
    "constraints" : ["AMB"],
    "pickup_first": false,
    "on_hold": false
 },
 {
   "id":27,
   "c":"AMB",
   "sdp":"SDP003446",
   "times":"08:30:00",
   "days":"T",
   "name":"CLARK, STEPHIE",
   "gender": "FEMALE",
   "site":"NORTH COUNTY",
   "destination":"1840 WEST DR, VISTA, CA, 92083",
   "other":"",
   "full_address":"140 STEVEN LN, #140, OCEANSIDE, CA, 92058",
   "formatted_address":"140 STEVEN LN OCEANSIDE, CA 92058, USA",
   "number":"140",
   "street":"STEVEN LN",
   "city":"OCEANSIDE",
   "state":"CA",
   "zip":"92058",
   "longitude": -117.32341618778041,
   "latitude": 33.23074233510528, 
   "spoken_languages": ["ENGLISH"],
   "banned_ethnic_group":[
      
   ],
   "banned_drivers":[
      
   ],
   "prefered_driver": null,
   "unsafe_for_female_driver":0,
   "unsafe_for_male_driver":0,
   "bording_time":420,
   "constraints" : ["AMB"],
   "pickup_first": false,
   "on_hold": false
},
 {
    "id":28,
    "c":"AMB",
    "sdp":"SDP002828",
    "times":"08:30:00",
    "days":"M-T-W-TH-F",
    "name":"FIGUEROA, RAUL",
    "gender": "MALE",
    "site":"NORTH COUNTY",
    "destination":"1840 WEST DR, VISTA, CA, 92083",
    "other":"",
    "full_address":"700 CAREY RD, #15, OCEANSIDE, CA, 92058",
    "formatted_address":"700 CAREY RD, OCEANSIDE, CA 92058, USA",
    "number":"700",
    "street":"CAREY RD",
    "city":"OCEANSIDE",
    "state":"CA",
    "zip":"92058",
    "longitude": -117.36089811846801,
    "latitude": 33.20879405902314, 
    "spoken_languages": ["ENGLISH"],
    "banned_ethnic_group":[
       
    ],
    "banned_drivers":[
       
    ],
    "prefered_driver": null,
    "unsafe_for_female_driver":0,
    "unsafe_for_male_driver":0,
    "bording_time":420,
    "constraints" : ["AMB"],
    "pickup_first": false,
    "on_hold": false
 },
 {
   "id":29,
   "c":"AMB",
   "sdp":"SDP002468",
   "times":"08:30:00",
   "days":"M-T-W-TH-F",
   "name":"LUEVANOS, JUAN",
   "gender": "MALE",
   "site":"NORTH COUNTY",
   "destination":"1840 WEST DR, VISTA, CA 92083",
   "other":"",
   "full_address":"1911 BUSH ST, APT 220, OCEANSIDE, CA 92058",
   "formatted_address":"1911 BUSH ST OCEANSIDE, CA 92058, USA",
   "number":"1911",
   "street":"BUSH ST",
   "city":"OCEANSIDE",
   "state":"CA",
   "zip":"92058",
   "longitude": -117.36608957300129,
   "latitude": 33.20553415060262, 
   "spoken_languages": ["ENGLISH"],
   "banned_ethnic_group":[
      
   ],
   "banned_drivers":[
      
   ],
   "prefered_driver": null,
   "unsafe_for_female_driver":0,
   "unsafe_for_male_driver":0,
   "bording_time":420,
   "constraints" : ["AMB"],
   "pickup_first": false,
   "on_hold": false
},
 {
    "id":30,
    "c":"AMB",
    "sdp":"SDP001858",
    "times":"08:30:00",
    "days":"M-T-W",
    "name":"PALACIOS QUINTA, ROSALINA",
    "gender": "FEMALE",
    "site":"NORTH COUNTY",
    "destination":"1840 WEST DR, VISTA, CA 92083",
    "other":"",
    "full_address":"201 COUNTRY CLUB LN, APT 23, OCEANSIDE, CA 92054",
    "formatted_address":"201 COUNTRY CLUB LN OCEANSIDE, CA 92054, USA",
    "number":"201",
    "street":"COUNTRY CLUB LN",
    "city":"OCEANSIDE",
    "state":"CA",
    "zip":"92054",
    "longitude": -117.36563057300133,
    "latitude": 33.19906806585404, 
    "spoken_languages": ["ENGLISH"],
    "banned_ethnic_group":[
       
    ],
    "banned_drivers":[
       
    ],
    "prefered_driver": null,
    "unsafe_for_female_driver":0,
    "unsafe_for_male_driver":0,
    "bording_time":420,
    "constraints" : ["AMB"],
    "pickup_first": false,
    "on_hold": false
 },
 {
    "id":31,
    "c":"AMB",
    "sdp":"SDP004324",
    "times":"10:30:00",
    "days":"M-T-W-TH-F",
    "name":"PAUMA, VALLEY",
    "gender": "MALE",
    "site":"NORTH COUNTY",
    "destination":"1840 WEST DR, VISTA, CA, 92083",
    "other":"",
    "full_address":"14715 HIGHWAY 76, SPC 89, PAUMA VALLEY, CA, 92061",
    "formatted_address":"14715 HIGHWAY 76 PAUMA VALLEY, CA 92061, USA",
    "number":"14715",
    "street":"HIGHWAY 76",
    "city":"PAUMA VALLEY",
    "state":"CA",
    "zip":"92061",
    "longitude": -117.01389181661257,
    "latitude": 33.33888040169333, 
    "spoken_languages": ["ENGLISH"],
    "banned_ethnic_group":[
       
    ],
    "banned_drivers":[
       
    ],
    "prefered_driver": null,
    "unsafe_for_female_driver":0,
    "unsafe_for_male_driver":0,
    "bording_time":420,
    "constraints" : ["AMB"],
    "pickup_first": false,
    "on_hold": false
 },
 {
    "id":32,
    "c":"AMB",
    "sdp":"SDP004564",
    "times":"08:30:00",
    "days":"T-TH",
    "name":"SCHAER, DIANNE M",
    "gender": "FEMALE",
    "site":"NORTH COUNTY",
    "destination":"1840 WEST DR, VISTA, CA, 92083",
    "other":"",
    "full_address":"213 N HAYDEN DR, ESCONDIDO, CA, 92027",
    "formatted_address":"213 N HAYDEN DR ESCONDIDO, CA 92027, USA",
    "number":"213",
    "street":"N HAYDEN DR",
    "city":"ESCONDIDO",
    "state":"CA",
    "zip":"92027",
    "longitude": -117.03911807429121,
    "latitude": 33.140761579604316, 
    "spoken_languages": ["ENGLISH"],
    "banned_ethnic_group":[
       
    ],
    "banned_drivers":[
       
    ],
    "prefered_driver": null,
    "unsafe_for_female_driver":0,
    "unsafe_for_male_driver":0,
    "bording_time":420,
    "constraints" : ["AMB"],
    "pickup_first": false,
    "on_hold": false
 },
 {
   "id":33,
   "c":"AMB",
   "sdp":"SDP001192",
   "times":"08:30:00",
   "days":"T-TH",
   "name":"BONILLA, EVERARDO",
   "gender": "MALE",
   "site":"NORTH COUNTY",
   "destination":"1840 WEST DR, VISTA, CA, 92083",
   "other":"",
   "full_address":"260 N MIDWAY DR, APT A21, ESCONDIDO, CA 92027",
   "formatted_address":"260 N MIDWAY DR ESCONDIDO, CA 92027, USA",
   "number":"260",
   "street":"N MIDWAY DR",
   "city":"ESCONDIDO",
   "state":"CA",
   "zip":"92027",
   "longitude":  -117.04980380197979,
   "latitude": 33.13529604782048,
   "spoken_languages": ["ENGLISH"],
   "banned_ethnic_group":[
      
   ],
   "banned_drivers":[
      
   ],
   "prefered_driver": null,
   "unsafe_for_female_driver":0,
   "unsafe_for_male_driver":0,
   "bording_time":420,
   "constraints" : ["AMB"],
   "pickup_first": false,
   "on_hold": false
},
{
   "id":34,
   "c":"AMB",
   "sdp":"SDP001159",
   "times":"08:30:00",
   "days":"T-W-TH",
   "name":"ZAMORA, VICTORIA",
   "gender": "FEMALE",
   "site":"NORTH COUNTY",
   "destination":"1840 WEST DR, VISTA, CA, 92083",
   "other":"",
   "full_address":"260 N MIDWAY DR, APT A21, ESCONDIDO, CA 92027",
   "formatted_address":"260 N MIDWAY DR ESCONDIDO, CA 92027, USA",
   "number":"260",
   "street":"N MIDWAY DR",
   "city":"ESCONDIDO",
   "state":"CA",
   "zip":"92027",
   "longitude":  -117.04980380197979,
   "latitude": 33.13529604782048,
   "spoken_languages": ["ENGLISH"],
   "banned_ethnic_group":[
      
   ],
   "banned_drivers":[
      
   ],
   "prefered_driver": null,
   "unsafe_for_female_driver":0,
   "unsafe_for_male_driver":0,
   "bording_time":420,
   "constraints" : ["AMB"],
   "pickup_first": false,
   "on_hold": false
},
{
   "id":35,
   "c":"AMB",
   "sdp":"SDP003385",
   "times":"08:30:00",
   "days":"T-TH",
   "name":"SIRYPANGNO, VON",
   "gender": "MALE",
   "site":"NORTH COUNTY",
   "destination":"1840 WEST DR, VISTA, CA 92083",
   "other":"",
   "full_address":"1134 ADELE LN, SAN MARCOS, CA 92078",
   "formatted_address":"1134 ADELE LN SAN MARCOS, CA 92078, USA",
   "number":"1134",
   "street":"ADELE LN",
   "city":"SAN MARCOS",
   "state":"CA",
   "zip":"92078",
   "longitude":-117.1390553306744,
   "latitude": 33.12946574510546, 
   "spoken_languages": ["ENGLISH"],
   "banned_ethnic_group":[
      
   ],
   "banned_drivers":[
      
   ],
   "prefered_driver": null,
   "unsafe_for_female_driver":0,
   "unsafe_for_male_driver":0,
   "bording_time":420,
   "constraints" : ["AMB"],
   "pickup_first": false,
   "on_hold": false
},
 {
    "id":36,
    "c":"AMB",
    "sdp":"SDP004184",
    "times":"08:30:00",
    "days":"T-TH-F",
    "name":"MONDRAGON, FELICIANA",
    "gender": "MALE",
    "site":"NORTH COUNTY",
    "destination":"1840 WEST DR, VISTA, CA 92083",
    "other":"",
    "full_address":"1228 ARMSTRONG CIR, ESCONDIDO, CA, 92027",
    "formatted_address":"1228 ARMSTRONG CIR ESCONDIDO, CA 92027, USA",
    "number":"1228",
    "street":"ARMSTRONG CIR",
    "city":"ESCONDIDO",
    "state":"CA",
    "zip":"92027",
    "longitude": -117.07313638778352,
    "latitude": 33.14154890955863, 
    "spoken_languages": ["ENGLISH"],
    "banned_ethnic_group":[
       
    ],
    "banned_drivers":[
       
    ],
    "prefered_driver": null,
    "unsafe_for_female_driver":0,
    "unsafe_for_male_driver":0,
    "bording_time":420,
    "constraints" : ["AMB"],
    "pickup_first": false,
    "on_hold": false
 },
 {
    "id":37,
    "c":"AMB",
    "sdp":"SDP003360",
    "times":"10:30:00",
    "days":"T",
    "name":"MATIAS SIMON, PEDRO",
    "gender": "MALE",
    "site":"NORTH COUNTY",
    "destination":"1840 WEST DR, VISTA, CA 92083",
    "other":"",
    "full_address":"204 S DITMAR, OCEANSIDE, CA, 92504",
    "formatted_address":"204 S DITMAR OCEANSIDE, CA 92504, USA",
    "number":"204",
    "street":"S DITMAR",
    "city":"OCEANSIDE",
    "state":"CA",
    "zip":"92504",
    "longitude": -117.37618117128874,
    "latitude": 33.19592229593034, 
    "spoken_languages": ["ENGLISH"],
    "banned_ethnic_group":[
       
    ],
    "banned_drivers":[
       
    ],
    "prefered_driver": null,
    "unsafe_for_female_driver":0,
    "unsafe_for_male_driver":0,
    "bording_time":420,
    "constraints" : ["AMB"],
    "pickup_first": false,
    "on_hold": true
 },
 {
   "id":38,
   "c":"AMB",
   "sdp":"SDP003360",
   "times":"08:30:00",
   "days":"W",
   "name":"MATIAS SIMON, PEDRO",
   "gender": "MALE",
   "site":"NORTH COUNTY",
   "destination":"1840 WEST DR, VISTA, CA 92083",
   "other":"",
   "full_address":"204 S DITMAR, OCEANSIDE, CA, 92504",
   "formatted_address":"204 S DITMAR OCEANSIDE, CA 92504, USA",
   "number":"204",
   "street":"S DITMAR",
   "city":"OCEANSIDE",
   "state":"CA",
   "zip":"92504",
   "longitude": -117.37618117128874,
   "latitude": 33.19592229593034, 
   "spoken_languages": ["ENGLISH"],
   "banned_ethnic_group":[
      
   ],
   "banned_drivers":[
      
   ],
   "prefered_driver": null,
   "unsafe_for_female_driver":0,
   "unsafe_for_male_driver":0,
   "bording_time":420,
   "constraints" : ["AMB"],
   "pickup_first": false,
   "on_hold": true
},
{
  "id":39,
  "c":"AMB",
  "sdp":"SDP003359",
  "times":"10:30:00",
  "days":"T",
  "name":"MATIAS, VICTORIA B",
  "gender": "FEMALE",
  "site":"NORTH COUNTY",
  "destination":"1840 WEST DR, VISTA, CA 92083",
  "other":"",
  "full_address":"204 S DITMAR, OCEANSIDE, CA, 92504",
  "formatted_address":"204 S DITMAR OCEANSIDE, CA 92504, USA",
  "number":"204",
  "street":"S DITMAR",
  "city":"OCEANSIDE",
  "state":"CA",
  "zip":"92504",
  "longitude": -117.37618117128874,
  "latitude": 33.19592229593034, 
  "spoken_languages": ["ENGLISH"],
  "banned_ethnic_group":[
     
  ],
  "banned_drivers":[
     
  ],
  "prefered_driver": null,
  "unsafe_for_female_driver":0,
  "unsafe_for_male_driver":0,
  "bording_time":420,
  "constraints" : ["AMB"],
  "pickup_first": false,
  "on_hold": true
},
{
   "id":40,
   "c":"AMB",
   "sdp":"SDP003359",
   "times":"08:30:00",
   "days":"W",
   "name":"MATIAS, VICTORIA B",
   "gender": "FEMALE",
   "site":"NORTH COUNTY",
   "destination":"1840 WEST DR, VISTA, CA 92083",
   "other":"",
   "full_address":"204 S DITMAR, OCEANSIDE, CA, 92504",
   "formatted_address":"204 S DITMAR OCEANSIDE, CA 92504, USA",
   "number":"204",
   "street":"S DITMAR",
   "city":"OCEANSIDE",
   "state":"CA",
   "zip":"92504",
   "longitude": -117.37618117128874,
   "latitude": 33.19592229593034, 
   "spoken_languages": ["ENGLISH"],
   "banned_ethnic_group":[
      
   ],
   "banned_drivers":[
      
   ],
   "prefered_driver": null,
   "unsafe_for_female_driver":0,
   "unsafe_for_male_driver":0,
   "bording_time":420,
   "constraints" : ["AMB"],
   "pickup_first": false,
   "on_hold": true
 },
 {
   "id":41,
   "c":"AMB",
   "sdp":"SDP003525",
   "times":"08:30:00",
   "days":"W",
   "name":"BELIZ, LAWRENCE",
   "gender": "FEMALE",
   "site":"NORTH COUNTY",
   "destination":"1840 WEST DR, VISTA, CA 92083",
   "other":"",
   "full_address":"1600 W 9TH AVE, APT 30B, ESCONDIDO, CA, 92029",
   "formatted_address":"1600 W 9TH AVE ESCONDIDO, CA 92029, USA",
   "number":"1600",
   "street":"W 9TH AVE",
   "city":"ESCONDIDO",
   "state":"CA",
   "zip":"92029",
   "longitude": -117.10719894545635,
   "latitude": 333.11275014318151, 
   "spoken_languages": ["ENGLISH"],
   "banned_ethnic_group":[
      
   ],
   "banned_drivers":[
      
   ],
   "prefered_driver": null,
   "unsafe_for_female_driver":0,
   "unsafe_for_male_driver":0,
   "bording_time":420,
   "constraints" : ["AMB"],
   "pickup_first": false,
   "on_hold": true
 },
 {
   "id":42,
   "c":"AMB",
   "sdp":"SDP003525",
   "times":"08:30:00",
   "days":"W",
   "name":"BELIZ, LAWRENCE",
   "gender": "FEMALE",
   "site":"NORTH COUNTY",
   "destination":"1840 WEST DR, VISTA, CA 92083",
   "other":"",
   "full_address":"1600 W 9TH AVE, APT 30B, ESCONDIDO, CA, 92029",
   "formatted_address":"1600 W 9TH AVE ESCONDIDO, CA 92029, USA",
   "number":"1600",
   "street":"W 9TH AVE",
   "city":"ESCONDIDO",
   "state":"CA",
   "zip":"92029",
   "longitude": -117.10719894545635,
   "latitude": 333.11275014318151, 
   "spoken_languages": ["ENGLISH"],
   "banned_ethnic_group":[
      
   ],
   "banned_drivers":[
      
   ],
   "prefered_driver": null,
   "unsafe_for_female_driver":0,
   "unsafe_for_male_driver":0,
   "bording_time":420,
   "constraints" : ["AMB"],
   "pickup_first": false,
   "on_hold": true
 },
 {
   "id":43,
   "c":"AMB",
   "sdp":"SDP003201",
   "times":"08:30:00",
   "days":"W-F",
   "name":"ARIAS, TERESA",
   "gender": "FEMALE",
   "site":"NORTH COUNTY",
   "destination":"1840 WEST DR, VISTA, CA 92083",
   "other":"",
   "full_address":"215 E WASHINGTON AVE, APT 202, ESCONDIDO, CA, 92025",
   "formatted_address":"215 E WASHINGTON AVE ESCONDIDO, CA 92025, USA",
   "number":"215",
   "street":"E WASHINGTON AVE",
   "city":"ESCONDIDO",
   "state":"CA",
   "zip":"92025",
   "longitude": -117.08219568778414,
   "latitude": 33.12732176754952, 
   "spoken_languages": ["ENGLISH"],
   "banned_ethnic_group":[
      
   ],
   "banned_drivers":[
      
   ],
   "prefered_driver": null,
   "unsafe_for_female_driver":0,
   "unsafe_for_male_driver":0,
   "bording_time":420,
   "constraints" : ["AMB"],
   "pickup_first": false,
   "on_hold": true
 },
 {
   "id":44,
   "c":"AMB",
   "sdp":"SDP003398",
   "times":"08:30:00",
   "days":"W-F",
   "name":"GARCIA, DELIA",
   "gender": "FEMALE",
   "site":"NORTH COUNTY",
   "destination":"1840 WEST DR, VISTA, CA 92083",
   "other":"",
   "full_address":"233 MICHIGAN AVE, VISTA, CA, 92084",
   "formatted_address":"233 MICHIGAN AVE, VISTA, CA, 92084, USA",
   "number":"233",
   "street":"MICHIGAN AVE",
   "city":"VISTA",
   "state":"CA",
   "zip":"92084",
   "longitude": -117.24223300312468,
   "latitude": 33.20426161507192, 
   "spoken_languages": ["ENGLISH"],
   "banned_ethnic_group":[
      
   ],
   "banned_drivers":[
      
   ],
   "prefered_driver": null,
   "unsafe_for_female_driver":0,
   "unsafe_for_male_driver":0,
   "bording_time":420,
   "constraints" : ["AMB"],
   "pickup_first": false,
   "on_hold": true
 },
 {
   "id":45,
   "c":"AMB",
   "sdp":"SDP003757",
   "times":"08:30:00",
   "days":"W-F",
   "name":"ARAUJO ARQUELLO, SIMON",
   "gender": "MALE",
   "site":"NORTH COUNTY",
   "destination":"1840 WEST DR, VISTA, CA 92083",
   "other":"",
   "full_address":"233 MICHIGAN AVE, VISTA, CA, 92084",
   "formatted_address":"233 MICHIGAN AVE, VISTA, CA, 92084, USA",
   "number":"233",
   "street":"MICHIGAN AVE",
   "city":"VISTA",
   "state":"CA",
   "zip":"92084",
   "longitude": -117.24223300312468,
   "latitude": 33.20426161507192, 
   "spoken_languages": ["ENGLISH"],
   "banned_ethnic_group":[
      
   ],
   "banned_drivers":[
      
   ],
   "prefered_driver": null,
   "unsafe_for_female_driver":0,
   "unsafe_for_male_driver":0,
   "bording_time":420,
   "constraints" : ["AMB"],
   "pickup_first": false,
   "on_hold": true
 },
 {
   "id":46,
   "c":"AMB",
   "sdp":"SDP002236",
   "times":"08:30:00",
   "days":"W",
   "name":"MARCIAL BENITEZ, ROMANA",
   "gender": "FEMALE",
   "site":"NORTH COUNTY",
   "destination":"1840 WEST DR, VISTA, CA 92083",
   "other":"",
   "full_address":"336 ARNEL AVE, VISTA, CA, 92083",
   "formatted_address":"336 ARNEL AVE VISTA, CA 92083, USA",
   "number":"336",
   "street":"ARNEL AVE",
   "city":"VISTA",
   "state":"CA",
   "zip":"92083",
   "longitude": -117.24933841661698,
   "latitude": 33.209112275352396, 
   "spoken_languages": ["ENGLISH"],
   "banned_ethnic_group":[
      
   ],
   "banned_drivers":[
      
   ],
   "prefered_driver": null,
   "unsafe_for_female_driver":0,
   "unsafe_for_male_driver":0,
   "bording_time":420,
   "constraints" : ["AMB"],
   "pickup_first": false,
   "on_hold": true
 },
 {
   "id":47,
   "c":"AMB",
   "sdp":"SDP001146",
   "times":"08:30:00",
   "days":"W-TH",
   "name":"VILLLBA DE QUI, JOSEFINA ",
   "gender": "FEMALE",
   "site":"NORTH COUNTY",
   "destination":"1840 WEST DR, VISTA, CA 92083",
   "other":"",
   "full_address":"4419 PALA RD, OCEANSIDE, CA, 92057",
   "formatted_address":"4419 PALA RD OCEANSIDE, CA 92057, USA",
   "number":"4419",
   "street":"PALA RD",
   "city":"OCEANSIDE",
   "state":"CA",
   "zip":"92057",
   "longitude": -117.30442425894445,
   "latitude": 33.23793689869768, 
   "spoken_languages": ["ENGLISH"],
   "banned_ethnic_group":[
      
   ],
   "banned_drivers":[
      
   ],
   "prefered_driver": null,
   "unsafe_for_female_driver":0,
   "unsafe_for_male_driver":0,
   "bording_time":420,
   "constraints" : ["AMB"],
   "pickup_first": false,
   "on_hold": true
 },
 {
   "id":48,
   "c":"AMB",
   "sdp":"SDP001146",
   "times":"10:30:00",
   "days":"T",
   "name":"VILLLBA DE QUI, JOSEFINA",
   "gender": "FEMALE",
   "site":"NORTH COUNTY",
   "destination":"1840 WEST DR, VISTA, CA 92083",
   "other":"",
   "full_address":"4419 PALA RD, OCEANSIDE, CA, 92057",
   "formatted_address":"4419 PALA RD OCEANSIDE, CA 92057, USA",
   "number":"4419",
   "street":"PALA RD",
   "city":"OCEANSIDE",
   "state":"CA",
   "zip":"92057",
   "longitude": -117.30442425894445,
   "latitude": 33.23793689869768, 
   "spoken_languages": ["ENGLISH"],
   "banned_ethnic_group":[
      
   ],
   "banned_drivers":[
      
   ],
   "prefered_driver": null,
   "unsafe_for_female_driver":0,
   "unsafe_for_male_driver":0,
   "bording_time":420,
   "constraints" : ["AMB"],
   "pickup_first": false,
   "on_hold": true
 },
 {
   "id":49,
   "c":"AMB",
   "sdp":"SDP004424",
   "times":"10:30:00",
   "days":"W",
   "name":"VASILE, MICHELLE",
   "gender": "FEMALE",
   "site":"NORTH COUNTY",
   "destination":"1840 WEST DR, VISTA, CA 92083",
   "other":"",
   "full_address":"2551 MARJO CT, OCEANSIDE, CA, 92056",
   "formatted_address":"2551 MARJO CT OCEANSIDE, CA 92056, USA",
   "number":"2551",
   "street":"MARJO CT",
   "city":"OCEANSIDE",
   "state":"CA",
   "zip":"92056",
   "longitude": -117.28022534545316,
   "latitude": 33.20456514562519, 
   "spoken_languages": ["ENGLISH"],
   "banned_ethnic_group":[
      
   ],
   "banned_drivers":[
      
   ],
   "prefered_driver": null,
   "unsafe_for_female_driver":0,
   "unsafe_for_male_driver":0,
   "bording_time":420,
   "constraints" : ["AMB"],
   "pickup_first": false,
   "on_hold": true
 },
 {
   "id":50,
   "c":"AMB",
   "sdp":"SDP003871",
   "times":"08:30:00",
   "days":"T",
   "name":"BALIGNASAY, ROBERTO P",
   "gender": "FEMALE",
   "site":"NORTH COUNTY",
   "destination":"1840 WEST DR, VISTA, CA 92083",
   "other":"",
   "full_address":"737 LOS ARBOLITOS, OCEANSIDE, CA, 92058",
   "formatted_address":"737 LOS ARBOLITOS OCEANSIDE, CA 92058, USA",
   "number":"737",
   "street":"LOS ARBOLITOS",
   "city":"OCEANSIDE",
   "state":"CA",
   "zip":"92058",
   "longitude": -117.33846467428789,
   "latitude": 33.23720552117374, 
   "spoken_languages": ["ENGLISH"],
   "banned_ethnic_group":[
      
   ],
   "banned_drivers":[
      
   ],
   "prefered_driver": null,
   "unsafe_for_female_driver":0,
   "unsafe_for_male_driver":0,
   "bording_time":420,
   "constraints" : ["AMB"],
   "pickup_first": false,
   "on_hold": true
 },
 {
   "id":51,
   "c":"AMB",
   "sdp":"SDP003870",
   "times":"07:30:00",
   "days":"T",
   "name":"TRAN, TUYET B",
   "gender": "FEMALE",
   "site":"NORTH COUNTY",
   "destination":"1840 WEST DR, VISTA, CA 92083",
   "other":"",
   "full_address":"1600 W 9TH ST, #48, ESCONDIDO, CA, 92029",
   "formatted_address":"1600 W 9TH ST ESCONDIDO, CA 92029, USA",
   "number":"1600",
   "street":"W 9TH ST",
   "city":"ESCONDIDO",
   "state":"CA",
   "zip":"92029",
   "longitude": -117.10720967438554,
   "latitude": 33.11274115673857, 
   "spoken_languages": ["ENGLISH"],
   "banned_ethnic_group":[
      
   ],
   "banned_drivers":[
      
   ],
   "prefered_driver": null,
   "unsafe_for_female_driver":0,
   "unsafe_for_male_driver":0,
   "bording_time":420,
   "constraints" : ["AMB"],
   "pickup_first": false,
   "on_hold": true
 },
 {
   "id":52,
   "c":"AMB",
   "sdp":"SDP003230",
   "times":"08:30:00",
   "days":"F",
   "name":"VALDOVINOS, MARIA",
   "gender": "FEMALE",
   "site":"NORTH COUNTY",
   "destination":"1840 WEST DR, VISTA, CA 92083",
   "other":"",
   "full_address":"157 EATON WAY, VISTA, CA, 92084",
   "formatted_address":"157 EATON WAY VISTA, CA 92084, USA",
   "number":"157",
   "street":"EATON WAY",
   "city":"VISTA",
   "state":"CA",
   "zip":"92084",
   "longitude": -117.24331297438198,
   "latitude": 33.20991197395783, 
   "spoken_languages": ["ENGLISH"],
   "banned_ethnic_group":[
      
   ],
   "banned_drivers":[
      
   ],
   "prefered_driver": null,
   "unsafe_for_female_driver":0,
   "unsafe_for_male_driver":0,
   "bording_time":420,
   "constraints" : ["AMB"],
   "pickup_first": false,
   "on_hold": true
 },
 {
   "id":53,
   "c":"AMB",
   "sdp":"SDP001869",
   "times":"10:30:00",
   "days":"F",
   "name":"DIEGO GARCIA, OFELIA",
   "gender": "FEMALE",
   "site":"NORTH COUNTY",
   "destination":"1840 WEST DR, VISTA, CA 92083",
   "other":"",
   "full_address":"201 AVENIDA MARGUARITA, OCEANSIDE, CA, 92057",
   "formatted_address":"201 AVENIDA MARGUARITA OCEANSIDE, CA 92057, USA",
   "number":"201",
   "street":"AVENIDA MARGUARITA",
   "city":"OCEANSIDE",
   "state":"CA",
   "zip":"92057",
   "longitude": -117.30109028972295,
   "latitude": 33.23661274868136, 
   "spoken_languages": ["ENGLISH"],
   "banned_ethnic_group":[
      
   ],
   "banned_drivers":[
      
   ],
   "prefered_driver": null,
   "unsafe_for_female_driver":0,
   "unsafe_for_male_driver":0,
   "bording_time":420,
   "constraints" : ["AMB"],
   "pickup_first": false,
   "on_hold": true
 },
 {
   "id":54,
   "c":"AMB",
   "sdp":"SDP004309",
   "times":"10:30:00",
   "days":"F",
   "name":"SAVEDRA, LINDA",
   "gender": "FEMALE",
   "site":"NORTH COUNTY",
   "destination":"1840 WEST DR, VISTA, CA 92083",
   "other":"",
   "full_address":"4195 LONNIE ST, OCEANSIDE, CA, 92056",
   "formatted_address":"4195 LONNIE ST OCEANSIDE, CA 92056, USA",
   "number":"4195",
   "street":"LONNIE ST",
   "city":"OCEANSIDE",
   "state":"CA",
   "zip":"92056",
   "longitude": -117.28230604554712,
   "latitude": 33.194274613668306, 
   "spoken_languages": ["ENGLISH"],
   "banned_ethnic_group":[
      
   ],
   "banned_drivers":[
      
   ],
   "prefered_driver": null,
   "unsafe_for_female_driver":0,
   "unsafe_for_male_driver":0,
   "bording_time":420,
   "constraints" : ["AMB"],
   "pickup_first": false,
   "on_hold": true
 }
]

