[
    {
    "id":1,
    "c":"AMB",
    "sdp":"SDP039312",
    "times":"08:00:00",
    "days":"M-T-W-TH-F",
    "name":"RODRIGUEZ, ANGELINA",
    "site":"SAN YSIDRO PACE",
    "destination":"3364 BEYER BLVD,SUITE 102, SAN YSIDRO, CA, 92173",
    "other":"",
    "full_address":"1797 MEADOWOOD CT SAN YSIDRO, CA 92173",
    "formatted_address":"1797 MEADOWOOD CT, SAN YSIDRO, CA 92173, USA",
    "number":"1797",
    "street":"MEADOWOOD CT",
    "city":"SAN DIEGO",
    "state":"CA",
    "zip":"92173",
    "longitude":-117.0647665,
    "latitude":32.5637836,
    "spoken_languages": ["English"],
    "banned_ethnic_group":[
       
    ],
    "banned_drivers":[
       
    ],
    "prefered_driver": null,
    "unsafe_for_female_driver":0,
    "unsafe_for_male_driver":0,
    "bording_time":300,
    "constraints" : ["AMB"]
 },
 {
    "id":2,
    "c":"AMB",
    "sdp":"SDP007270",
    "times":"08:00:00",
    "days":"M-T-W-TH-F",
    "name":"VALADEZ, ANA",
    "site":"SAN YSIDRO PACE",
    "destination":"3364 BEYER BLVD,SUITE 102, SAN YSIDRO, CA, 92173",
    "other":"",
    "full_address":"1056 CALLE AVE IMPERIAL BEACH, CA 91932",
    "formatted_address":"1056 CALLA AVE, IMPERIAL BEACH, CA 91932, USA",
    "number":"1056",
    "street":"CALLA AVE",
    "city":"IMPERIAL BEACH",
    "state":"CA",
    "zip":"91932",
    "longitude":-117.1111015,
    "latitude":32.5857058,
    "spoken_languages": ["English"],
    "banned_ethnic_group":[
       
    ],
    "banned_drivers":[
       
    ],
    "prefered_driver": null,
    "unsafe_for_female_driver":0,
    "unsafe_for_male_driver":0,
    "bording_time":300,
    "constraints" : ["AMB"]
 },
 {
    "id":3,
    "c":"AMB",
    "sdp":"SDP477955",
    "times":"08:00:00",
    "days":"M-T-W-TH-F",
    "name":"MERINO, JORGE",
    "site":"SAN YSIDRO PACE",
    "destination":"3364 BEYER BLVD,SUITE 102, SAN YSIDRO, CA, 92173",
    "other":"",
    "full_address":"2701 PALM AVE REAR UNIT SAN DIEGO, CA 92154",
    "formatted_address":"2701 PALM AVE, SAN DIEGO, CA 92154, USA",
    "number":"2701",
    "street":"PALM AVE",
    "city":"SAN DIEGO",
    "state":"CA",
    "zip":"92154",
    "longitude":-117.07559465092307,
    "latitude":32.58376214332508,
    "spoken_languages": ["English"],
    "banned_ethnic_group":[
       
    ],
    "banned_drivers":[
       
    ],
    "prefered_driver": null,
    "unsafe_for_female_driver":0,
    "unsafe_for_male_driver":0,
    "bording_time":300,
    "constraints" : ["AMB"]
 },
 {
    "id":4,
    "c":"AMB",
    "sdp":"SDP522644",
    "times":"08:00:00",
    "days":"M-T-W-TH-F",
    "name":"OSUNA, JUANA",
    "site":"SAN YSIDRO PACE",
    "destination":"3364 BEYER BLVD,SUITE 102, SAN YSIDRO, CA, 92173",
    "other":"",
    "full_address":"1251 2ND AVE CHULA VISTA, CA 91910",
    "formatted_address":"1251 2ND AVE, CHULA VISTA, CA 91910, USA",
    "number":"1251",
    "street":"2ND AVE",
    "city":"CHULA VISTA",
    "state":"CA",
    "zip":"91911",
    "longitude":-117.0627437,
    "latitude":32.6095647,
    "spoken_languages": ["English"],
    "banned_ethnic_group":[
       
    ],
    "banned_drivers":[
       
    ],
    "prefered_driver": null,
    "unsafe_for_female_driver":0,
    "unsafe_for_male_driver":0,
    "bording_time":300,
    "constraints" : ["AMB"]
 },
 {
    "id":5,
    "c":"AMB",
    "sdp":"SDP151128",
    "times":"08:00:00",
    "days":"M-T-W-TH-F",
    "name":"CIBRIAN, ALICIA",
    "site":"SAN YSIDRO PACE",
    "destination":"3364 BEYER BLVD,SUITE 102, SAN YSIDRO, CA, 92173",
    "other":"",
    "full_address":"3987 BATEMAN AVE SAN DIEGO, CA 92154",
    "formatted_address":"3987 BATEMAN AVE, SAN DIEGO, CA 92154, USA",
    "number":"3987",
    "street":"BATEMAN AVE",
    "city":"SAN DIEGO",
    "state":"CA",
    "zip":"92154",
    "longitude":-117.0485377,
    "latitude":32.5772382,
    "spoken_languages": ["English"],
    "banned_ethnic_group":[
       
    ],
    "banned_drivers":[
       
    ],
    "prefered_driver": null,
    "unsafe_for_female_driver":0,
    "unsafe_for_male_driver":0,
    "bording_time":300,
    "constraints" : ["AMB"]
 },
 {
    "id":6,
    "c":"AMB",
    "sdp":"SDP136230",
    "times":"09:00:00",
    "days":"M-T-W-TH-F",
    "name":"GONZALEZ, ANGELA",
    "site":"SAN YSIDRO PACE",
    "destination":"3364 BEYER BLVD,SUITE 102, SAN YSIDRO, CA, 92173",
    "other":"",
    "full_address":"3280 GLANCY DR SAN YSIDRO, CA 92173",
    "formatted_address":"3280 GLANCY DR, SAN YSIDRO, CA 92173, USA",
    "number":"3280",
    "street":"GLANCY DR",
    "city":"SAN DIEGO",
    "state":"CA",
    "zip":"92173",
    "longitude":-117.0537788,
    "latitude":32.5445659,
    "spoken_languages": ["English"],
    "banned_ethnic_group":[
       
    ],
    "banned_drivers":[
       
    ],
    "prefered_driver": null,
    "unsafe_for_female_driver":0,
    "unsafe_for_male_driver":0,
    "bording_time":300,
    "constraints" : ["AMB"]
 },
 {
    "id":7,
    "c":"AMB",
    "sdp":"SDP030159",
    "times":"09:00:00",
    "days":"M-T-W-TH-F",
    "name":"NAVARRETE, VICTOR",
    "site":"SAN YSIDRO PACE",
    "destination":"3364 BEYER BLVD,SUITE 102, SAN YSIDRO, CA, 92173",
    "other":"",
    "full_address":"154 W HALL AVE APT A SAN YSIDRO, CA 92173",
    "formatted_address":"154 W HALL AVE, SAN YSIDRO, CA 92173, USA",
    "number":"154",
    "street":"W HALL AVE",
    "city":"SAN YSIDRO",
    "state":"CA",
    "zip":"92173",
    "longitude": -117.04663014461634,
    "latitude":32.55456810028363,
    "spoken_languages": ["English"],
    "banned_ethnic_group":[
       
    ],
    "banned_drivers":[
       
    ],
    "prefered_driver": null,
    "unsafe_for_female_driver":0,
    "unsafe_for_male_driver":0,
    "bording_time":300,
    "constraints" : ["AMB"]
 },
 {
    "id":8,
    "c":"AMB",
    "sdp":"SDP242083",
    "times":"09:00:00",
    "days":"M-T-W-TH-F",
    "name":"NEVAREZ, ARTEMIA",
    "site":"SAN YSIDRO PACE",
    "destination":"3364 BEYER BLVD,SUITE 102, SAN YSIDRO, CA, 92173",
    "other":"",
    "full_address":"320 G ST APT 9 CHULA VISTA, CA 91910",
    "formatted_address":"320 G ST, CHULA VISTA, CA 91910, USA",
    "number":"320",
    "street":"G ST",
    "city":"CHULA VISTA",
    "state":"CA",
    "zip":"91910",
    "longitude": -117.07952973112023,
    "latitude":32.63754398027551,
    "spoken_languages": ["English"],
    "banned_ethnic_group":[
       
    ],
    "banned_drivers":[
       
    ],
    "prefered_driver": null,
    "unsafe_for_female_driver":0,
    "unsafe_for_male_driver":0,
    "bording_time":300,
    "constraints" : ["AMB"]
 },
 {
    "id":9,
    "c":"AMB",
    "sdp":"SDP281754",
    "times":"09:00:00",
    "days":"M-T-W-TH-F",
    "name":"SALAZAR, EVANGELINA",
    "site":"SAN YSIDRO PACE",
    "destination":"3364 BEYER BLVD,SUITE 102, SAN YSIDRO, CA, 92173",
    "other":"",
    "full_address":"3604 BEYER BLVD BLDG 37 APT 104 SAN YSIDRO, CA 92173",
    "formatted_address":"3604 BEYER BLVD, SAN YSIDRO, CA 92173, USA",
    "number":"3604",
    "street":"BEYER BLVD",
    "city":"SAN YSIDRO",
    "state":"CA",
    "zip":"92173",
    "longitude":  -117.05561913112169,
    "latitude":32.563285583589746,
    "spoken_languages": ["English"],
    "banned_ethnic_group":[
       
    ],
    "banned_drivers":[
       
    ],
    "prefered_driver": null,
    "unsafe_for_female_driver":0,
    "unsafe_for_male_driver":0,
    "bording_time":300,
    "constraints" : ["AMB"]
 },
 {
    "id":10,
    "c":"AMB",
    "sdp":"SDP001532",
    "times":"11:00:00",
    "days":"M-T-W-TH-F",
    "name":"REBOLLOSO, SILVIA",
    "site":"SAN YSIDRO PACE",
    "destination":"3364 BEYER BLVD,SUITE 102, SAN YSIDRO, CA, 92173",
    "other":"",
    "full_address":"181 WILLOW RD SAN YSIDRO, CA 92173",
    "formatted_address":"181 WILLOW RD, SAN YSIDRO, CA 92173, USA",
    "number":"181",
    "street":"WILLOW RD",
    "city":"SAN DIEGO",
    "state":"CA",
    "zip":"92173",
    "longitude":-117.0426787,
    "latitude":32.5515944,
    "spoken_languages": ["English"],
    "banned_ethnic_group":[
       
    ],
    "banned_drivers":[
       
    ],
    "prefered_driver": null,
    "unsafe_for_female_driver":0,
    "unsafe_for_male_driver":0,
    "bording_time":300,
    "constraints" : ["AMB"]
 },
 {
    "id":11,
    "c":"AMB",
    "sdp":"SDP424053",
    "times":"11:00:00",
    "days":"M-T-W-TH-F",
    "name":"ROSALES, RAMONA",
    "site":"SAN YSIDRO PACE",
    "destination":"3364 BEYER BLVD,SUITE 102, SAN YSIDRO, CA, 92173",
    "other":"",
    "full_address":"3604 BEYER BLVD, SAN YSIDRO, CA 92173",
    "formatted_address":"3604 BEYER BLVD, SAN YSIDRO, CA 92173, USA",
    "number":"3604",
    "street":"BEYER BLVD",
    "city":"SAN YSIDRO",
    "state":"CA",
    "zip":"92173",
    "longitude":-117.05571569063808,
    "latitude":32.563366963673424,
    "spoken_languages": ["English"],
    "banned_ethnic_group":[
       
    ],
    "banned_drivers":[
       
    ],
    "prefered_driver": null,
    "unsafe_for_female_driver":0,
    "unsafe_for_male_driver":0,
    "bording_time":300,
    "constraints" : ["AMB"]
 },
 {
    "id":12,
    "c":"AMB",
    "sdp":"SDP000255",
    "times":"08:00:00",
    "days":"M-T-W-TH-F",
    "name":"ORTIZ, JOSE",
    "site":"SAN YSIDRO PACE",
    "destination":"3364 BEYER BLVD,SUITE 102, SAN YSIDRO, CA, 92173",
    "other":"",
    "full_address":"221 E ONEIDA ST CHULA VISTA, CA 91911",
    "formatted_address":"221 E ONEIDA ST, CHULA VISTA, CA 91911, USA",
    "number":"221",
    "street":"E ONEIDA ST",
    "city":"CHULA VISTA",
    "state":"CA",
    "zip":"91911",
    "longitude":-117.0464227,
    "latitude":32.6148208,
    "spoken_languages": ["English"],
    "banned_ethnic_group":[
       
    ],
    "banned_drivers":[
       
    ],
    "prefered_driver": null,
    "unsafe_for_female_driver":0,
    "unsafe_for_male_driver":0,
    "bording_time":300,
    "constraints" : ["AMB"]
 },{
    "id":13,
    "c":"AMB",
    "sdp":"SDP000416",
    "times":"08:00:00",
    "days":"M-T-W-TH-F",
    "name":"MENDEZ, SABINO",
    "site":"SAN YSIDRO PACE",
    "destination":"3364 BEYER BLVD,SUITE 102, SAN YSIDRO, CA, 92173",
    "other":"",
    "full_address":"204 W SAN YSIDRO BLVD, STE 34, SAN YSIDRO, CA 92173",
    "formatted_address":"204 W SAN YSIDRO BLVD, SAN DIEGO, CA 92173, USA",
    "number":"204",
    "street":"E SAN YSIDRO BLVD",
    "city":"SAN DIEGO",
    "state":"CA",
    "zip":"92173",
    "longitude":-117.0422726,
    "latitude":32.5521008,
    "spoken_languages": ["English"],
    "banned_ethnic_group":[
       
    ],
    "banned_drivers":[
       
    ],
    "prefered_driver": null,
    "unsafe_for_female_driver":0,
    "unsafe_for_male_driver":0,
    "bording_time":300,
    "constraints" : ["AMB"]
 },
 {
    "id":14,
    "c":"AMB",
    "sdp":"SDP403693",
    "times":"09:00:00",
    "days":"M-T-W-TH-F",
    "name":"AGUIRRE, EULAULIO",
    "site":"CV",
    "destination":"880 3RD AVENUE, CHULA VISTA, CA, 91911",
    "other":"",
    "full_address":"607 BEYER WAY, APT 204, SAN DIEGO, CA 92154",
    "formatted_address":"607 BEYER WAY, SAN DIEGO, CA 92154, USA",
    "number":"607",
    "street":"BEYER WAY",
    "city":"SAN DIEGO",
    "state":"CA",
    "zip":"92154",
    "longitude":-117.0600865,
    "latitude":32.5853465,
    "spoken_languages": ["English"],
    "banned_ethnic_group":[
       
    ],
    "banned_drivers":[
       
    ],
    "prefered_driver": null,
    "unsafe_for_female_driver":0,
    "unsafe_for_male_driver":0,
    "bording_time":300,
    "constraints" : ["AMB"]
 },
 {
    "id":15,
    "c":"AMB",
    "sdp":"SDP021764",
    "times":"09:00:00",
    "days":"M-T-W-TH-F",
    "name":"PARADA CEJA, ELVIA",
    "site":"CV",
    "destination":"880 3RD AVENUE, CHULA VISTA, CA, 91911",
    "other":"",
    "full_address":"816 DOROTHY ST, APT C, CHULA VISTA, CA 91911",
    "formatted_address":"816 DOROTHY ST, CHULA VISTA, CA 91911, USA",
    "number":"816",
    "street":"DOROTHY ST",
    "city":"CHULA VISTA",
    "state":"CA",
    "zip":"91911",
    "longitude":-117.0884869,
    "latitude":32.6008109,
    "spoken_languages": ["English"],
    "banned_ethnic_group":[
       
    ],
    "banned_drivers":[
       
    ],
    "prefered_driver": null,
    "unsafe_for_female_driver":0,
    "unsafe_for_male_driver":0,
    "bording_time":300,
    "constraints" : ["AMB"]
 },
 {
    "id":16,
    "c":"AMB",
    "sdp":"SDP112947",
    "times":"09:00:00",
    "days":"M-T-W-TH-F",
    "name":"VILLALVA, JOSE",
    "site":"CV",
    "destination":"880 3RD AVENUE, CHULA VISTA, CA, 91911",
    "other":"",
    "full_address":"731 G STREET, SPC A-18, CHULA VISTA, CA 91910",
    "formatted_address":"731 G ST, CHULA VISTA, CA 91910, USA",
    "number":"731",
    "street":"G ST",
    "city":"CHULA VISTA",
    "state":"CA",
    "zip":"91910",
    "longitude":-117.0958301,
    "latitude":32.6343925,
    "spoken_languages": ["English"],
    "banned_ethnic_group":[
       
    ],
    "banned_drivers":[
       
    ],
    "prefered_driver": null,
    "unsafe_for_female_driver":0,
    "unsafe_for_male_driver":0,
    "bording_time":300,
    "constraints" : ["AMB"]
 },
 {
    "id":17,
    "c":"AMB",
    "sdp":"SDP000862",
    "times":"09:00:00",
    "days":"M-T-W-TH-F",
    "name":"ROJAS, JUAN",
    "site":"CV",
    "destination":"880 3RD AVENUE, CHULA VISTA, CA, 91911",
    "other":"",
    "full_address":"127 W HALL AVE, SAN YSIDRO, CA 92173",
    "formatted_address":"127 W HALL AVE, SAN YSIDRO, CA 92173, USA",
    "number":"127",
    "street":"W HALL AVE",
    "city":"SAN YSIDRO",
    "state":"CA",
    "zip":"92173",
    "longitude":-117.04579431578118,
    "latitude":32.55498094258349,
    "spoken_languages": ["English"],
    "banned_ethnic_group":[
       
    ],
    "banned_drivers":[
       
    ],
    "prefered_driver": null,
    "unsafe_for_female_driver":0,
    "unsafe_for_male_driver":0,
    "bording_time":300,
    "constraints" : ["AMB"]
 },
 {
    "id":18,
    "c":"AMB",
    "sdp":"SDP112952",
    "times":"09:00:00",
    "days":"M-T-W-TH-F",
    "name":"SALAZAR, BLANCA",
    "site":"CV",
    "destination":"880 3RD AVENUE, CHULA VISTA, CA, 91911",
    "other":"",
    "full_address":"731 G STREET, SPC A-18, CHULA VISTA, CA 91910",
    "formatted_address":"731 G ST, CHULA VISTA, CA 91910, USA",
    "number":"731",
    "street":"G ST",
    "city":"CHULA VISTA",
    "state":"CA",
    "zip":"91910",
    "longitude":-117.0958301,
    "latitude":32.6343925,
    "spoken_languages": ["English"],
    "banned_ethnic_group":[
       
    ],
    "banned_drivers":[
       
    ],
    "prefered_driver": null,
    "unsafe_for_female_driver":0,
    "unsafe_for_male_driver":0,
    "bording_time":300,
    "constraints" : ["AMB"]
 },
 {
    "id":19,
    "c":"AMB",
    "sdp":"SDP000959",
    "times":"11:00:00",
    "days":"M-T-W-TH-F",
    "name":"BARRERA, LEILA",
    "site":"CV",
    "destination":"880 3RD AVENUE, CHULA VISTA, CA, 91911",
    "other":"",
    "full_address":"1811 KNIGHTS FERRY DR, CHULA VISTA, CA 91913",
    "formatted_address":"1811 KNIGHTS FERRY DR, CHULA VISTA, CA 91913, USA",
    "number":"1811",
    "street":"KNIGHTS FERRY DR",
    "city":"CHULA VISTA",
    "state":"CA",
    "zip":"91913",
    "longitude":-116.98318333112019,
    "latitude":32.63902004993654,
    "spoken_languages": ["English"],
    "banned_ethnic_group":[
       
    ],
    "banned_drivers":[
       
    ],
    "prefered_driver": null,
    "unsafe_for_female_driver":0,
    "unsafe_for_male_driver":0,
    "bording_time":300,
    "constraints" : ["AMB"]
 },
 {
    "id":20,
    "c":"AMB",
    "sdp":"SDP000960",
    "times":"11:00:00",
    "days":"M-T-W-TH-F",
    "name":"BARRERA, BENJAMIN",
    "site":"CV",
    "destination":"880 3RD AVENUE, CHULA VISTA, CA, 91911",
    "other":"",
    "full_address":"1811 KNIGHTS FERRY DR, CHULA VISTA, CA 91913",
    "formatted_address":"1811 KNIGHTS FERRY DR, CHULA VISTA, CA 91913, USA",
    "number":"1811",
    "street":"KNIGHTS FERRY DR",
    "city":"CHULA VISTA",
    "state":"CA",
    "zip":"91913",
    "longitude":-116.98318333112019,
    "latitude":32.63902004993654,
    "spoken_languages": ["English"],
    "banned_ethnic_group":[
       
    ],
    "banned_drivers":[
       
    ],
    "prefered_driver": null,
    "unsafe_for_female_driver":0,
    "unsafe_for_male_driver":0,
    "bording_time":300,
    "constraints" : ["AMB"]
 },
 {
    "id":21,
    "c":"AMB",
    "sdp":"SDP341214",
    "times":"08:00:00",
    "days":"M-T-W-TH-F",
    "name":"GALLEGOS DE AGUILAR, LINDA",
    "site":"CV",
    "destination":"880 3RD AVENUE, CHULA VISTA, CA, 91911",
    "other":"",
    "full_address":"1317 D AVE, #515, NATIONAL CITY, CA 91950",
    "formatted_address":"1317 D AVE, NATIONAL CITY, CA 91950",
    "number":"1317",
    "street":"D AVE",
    "city":"NATIONAL CITY",
    "state":"CA",
    "zip":"91950",
    "longitude":-117.0998903868964,
    "latitude":32.67270904611135,
    "spoken_languages": ["English"],
    "banned_ethnic_group":[
       
    ],
    "banned_drivers":[
       
    ],
    "prefered_driver": null,
    "unsafe_for_female_driver":0,
    "unsafe_for_male_driver":0,
    "bording_time":300,
    "constraints" : ["AMB"]
 },
 {
    "id":22,
    "c":"AMB",
    "sdp":"SDP010221",
    "times":"09:00:00",
    "days":"M-T-W-TH-F",
    "name":"GONZALEZ, ALICIA",
    "site":"CV",
    "destination":"880 3RD AVENUE, CHULA VISTA, CA, 91911",
    "other":"",
    "full_address":"4168 DELTA ST, SAN DIEGO, CA 92113",
    "formatted_address":"4168 DELTA ST SAN DIEGO, CA 92113",
    "number":"4168",
    "street":"DELTA ST",
    "city":"SAN DIEGO",
    "state":"CA",
    "zip":"92113",
    "longitude":-117.10445807344895,
    "latitude":32.6892953371938,
    "spoken_languages": ["English"],
    "banned_ethnic_group":[
       
    ],
    "banned_drivers":[
       
    ],
    "prefered_driver": null,
    "unsafe_for_female_driver":0,
    "unsafe_for_male_driver":0,
    "bording_time":300,
    "constraints" : ["AMB"]
 },
 {
    "id":23,
    "c":"AMB",
    "sdp":"SDP001073",
    "times":"09:00:00",
    "days":"M-T-W-TH-F",
    "name":"CRUM, ALICIA",
    "site":"CV",
    "destination":"880 3RD AVENUE, CHULA VISTA, CA, 91911",
    "other":"",
    "full_address":"201 E 12TH ST, NATIONAL CITY, CA 91950",
    "formatted_address":"201 E 12TH ST, NATIONAL CITY, CA 91950, USA",
    "number":"201",
    "street":"E 12TH ST",
    "city":"NATIONAL CITY",
    "state":"CA",
    "zip":"91950",
    "longitude":-117.1076485,
    "latitude":32.6717974,
    "spoken_languages": ["English"],
    "banned_ethnic_group":[
       
    ],
    "banned_drivers":[
       
    ],
    "prefered_driver": null,
    "unsafe_for_female_driver":0,
    "unsafe_for_male_driver":0,
    "bording_time":300,
    "constraints" : ["AMB"]
 },
 {
    "id":24,
    "c":"AMB",
    "sdp":"SDP000345",
    "times":"09:00:00",
    "days":"M-T-W-TH-F",
    "name":"CABRAL, ADELINA",
    "site":"CV",
    "destination":"880 3RD AVENUE, CHULA VISTA, CA, 91911",
    "other":"",
    "full_address":"731 G ST, CHULA VISTA, CA 91910",
    "formatted_address":"731 G ST, CHULA VISTA, CA 91910, USA",
    "number":"731",
    "street":"G ST",
    "city":"CHULA VISTA",
    "state":"CA",
    "zip":"91910",
    "longitude":-117.0958301,
    "latitude":32.6343925,
    "spoken_languages": ["English"],
    "banned_ethnic_group":[
       
    ],
    "banned_drivers":[
       
    ],
    "prefered_driver": null,
    "unsafe_for_female_driver":0,
    "unsafe_for_male_driver":0,
    "bording_time":300,
    "constraints" : ["AMB"]
 },
 {
    "id":25,
    "c":"AMB",
    "sdp":"SDP001053",
    "times":"09:00:00",
    "days":"M-T-W-TH-F",
    "name":"HERNANDEZ, RICARDI",
    "site":"CV",
    "destination":"880 3RD AVENUE, CHULA VISTA, CA, 91911",
    "other":"",
    "full_address":"2680 MAIN ST, SAN DIEGO, CA 92113",
    "formatted_address":"2680 MAIN ST, SAN DIEGO, CA 92113, USA",
    "number":"2680",
    "street":"MAIN ST",
    "city":"SAN DIEGO",
    "state":"CA",
    "zip":"92113",
    "longitude":-117.1364136,
    "latitude":32.6930126,
    "spoken_languages": ["English"],
    "banned_ethnic_group":[
       
    ],
    "banned_drivers":[
       
    ],
    "prefered_driver": null,
    "unsafe_for_female_driver":0,
    "unsafe_for_male_driver":0,
    "bording_time":300,
    "constraints" : ["AMB"]
 },
 {
    "id":26,
    "c":"AMB",
    "sdp":"SDP498710",
    "times":"11:00:00",
    "days":"M-T-W-TH-F",
    "name":"MURRILLO, ESPERANZA",
    "site":"CV",
    "destination":"880 3RD AVENUE, CHULA VISTA, CA, 91911",
    "other":"",
    "full_address":"225 ZENITH ST, CHULA VISTA, CA 91911",
    "formatted_address":"225 ZENITH ST CHULA VISTA, CA 91911, USA",
    "number":"225",
    "street":"ZENITH ST",
    "city":"CHULA VISTA",
    "state":"CA",
    "zip":"91911",
    "longitude":-117.06140784646166,
    "latitude":32.595785216208974,
    "spoken_languages": ["English"],
    "banned_ethnic_group":[
       
    ],
    "banned_drivers":[
       
    ],
    "prefered_driver": null,
    "unsafe_for_female_driver":0,
    "unsafe_for_male_driver":0,
    "bording_time":300,
    "constraints" : ["AMB"]
 },
 {
    "id":27,
    "c":"AMB",
    "sdp":"SDP001526",
    "times":"11:00:00",
    "days":"M-T-W-TH-F",
    "name":"LOMELI, JESUS",
    "site":"CV",
    "destination":"880 3RD AVENUE, CHULA VISTA, CA, 91911",
    "other":"",
    "full_address":"487 SHY LN, CHULA VISTA, CA 91911",
    "formatted_address":"487 SHY LN CHULA VISTA, CA 91911, USA",
    "number":"487",
    "street":"SHY LN",
    "city":"CHULA VISTA",
    "state":"CA",
    "zip":"91911",
    "longitude":-117.07466720043945,
    "latitude":32.60732043954858,
    "spoken_languages": ["English"],
    "banned_ethnic_group":[
       
    ],
    "banned_drivers":[
       
    ],
    "prefered_driver": null,
    "unsafe_for_female_driver":0,
    "unsafe_for_male_driver":0,
    "bording_time":300,
    "constraints" : ["AMB"]
 },
 {
    "id":28,
    "c":"AMB",
    "sdp":"SDP280093",
    "times":"08:00:00",
    "days":"M-T-W-TH-F",
    "name":"REYES, JUAN",
    "site":"CV",
    "destination":"880 3RD AVENUE, CHULA VISTA, CA, 91911",
    "other":"",
    "full_address":"2605 E BEYER BLVD SAN YSIDRO, CA 92173",
    "formatted_address":"2605 E BEYER BLVD, SAN YSIDRO, CA 92173, USA",
    "number":"2605",
    "street":"E BEYER BLVD",
    "city":"SAN DIEGO",
    "state":"CA",
    "zip":"92173",
    "longitude":-117.0383307,
    "latitude":32.552234,
    "spoken_languages": ["English"],
    "banned_ethnic_group":[
       
    ],
    "banned_drivers":[
       
    ],
    "prefered_driver": 1,
    "unsafe_for_female_driver":0,
    "unsafe_for_male_driver":0,
    "bording_time":300,
    "constraints" : ["AMB"]
 },
 {
    "id":29,
    "c":"AMB",
    "sdp":"SDP000499",
    "times":"09:00:00",
    "days":"M-T-W-TH-F",
    "name":"LAMAS TORRES, BERTHA",
    "site":"CV",
    "destination":"880 3RD AVENUE, CHULA VISTA, CA, 91911",
    "other":"",
    "full_address":"3527 TRIDLE WAY, SAN YSIDRO, CA 92173",
    "formatted_address":"3527 TRIDLE WAY, SAN DIEGO, CA 92173, USA",
    "number":"3527",
    "street":"TRIDLE WAY",
    "city":"SAN DIEGO",
    "state":"CA",
    "zip":"92173",
    "longitude":-117.0536869,
    "latitude":32.5464283,
    "spoken_languages": ["English"],
    "banned_ethnic_group":[
       
    ],
    "banned_drivers":[
       
    ],
    "prefered_driver": null,
    "unsafe_for_female_driver":0,
    "unsafe_for_male_driver":0,
    "bording_time":300,
    "constraints" : ["AMB"]
 },
 {
    "id":30,
    "c":"AMB",
    "sdp":"SDP316885",
    "times":"09:00:00",
    "days":"M-T-W-TH-F",
    "name":"GUEVARRA, SORAIDA",
    "site":"CV",
    "destination":"880 3RD AVENUE, CHULA VISTA, CA, 91911",
    "other":"",
    "full_address":"253 RANCHO DR, CHULA VISTA, CA 91911",
    "formatted_address":"253 RANCHO DR CHULA VISTA, CA 91911, USA",
    "number":"253",
    "street":"RANCHO DR",
    "city":"CHULA VISTA",
    "state":"CA",
    "zip":"91911",
    "longitude":-117.04054604461557,
    "latitude":32.592321124596246,
    "spoken_languages": ["English"],
    "banned_ethnic_group":[
       
    ],
    "banned_drivers":[
       
    ],
    "prefered_driver": null,
    "unsafe_for_female_driver":0,
    "unsafe_for_male_driver":0,
    "bording_time":300,
    "constraints" : ["AMB"]
 },
 {
    "id":31,
    "c":"AMB",
    "sdp":"SDP316892",
    "times":"09:00:00",
    "days":"M-T-W-TH-F",
    "name":"GUEVARRA, RAYMUNDO",
    "site":"CV",
    "destination":"880 3RD AVENUE, CHULA VISTA, CA, 91911",
    "other":"",
    "full_address":"253 RANCHO DR, CHULA VISTA, CA 91911",
    "formatted_address":"253 RANCHO DR CHULA VISTA, CA 91911, USA",
    "number":"253",
    "street":"RANCHO DR",
    "city":"CHULA VISTA",
    "state":"CA",
    "zip":"91911",
    "longitude":-117.04054604461557,
    "latitude":32.592321124596246,
    "spoken_languages": ["English"],
    "banned_ethnic_group":[
       
    ],
    "banned_drivers":[
       
    ],
    "prefered_driver": null,
    "unsafe_for_female_driver":0,
    "unsafe_for_male_driver":0,
    "bording_time":300,
    "constraints" : ["AMB"]
 },
 {
    "id":32,
    "c":"AMB",
    "sdp":"SDP046139",
    "times":"11:00:00",
    "days":"M-T-W-TH-F",
    "name":"GONZALEZ, MARIA",
    "site":"SAN YSIDRO PACE",
    "destination":"3364 BEYER BLVD, SUITE 102, SAN YSIDRO, CA 92173",
    "other":"",
    "full_address":"960 CORDOVA DR, CHULA VISTA, CA 91910",
    "formatted_address":"960 CORDOVA DR, CHULA VISTA, CA 91910, USA",
    "number":"960",
    "street":"CORDOVA DR",
    "city":"CHULA VISTA",
    "state":"CA",
    "zip":"91910",
    "longitude":-117.013593,
    "latitude":32.6321577,
    "spoken_languages": ["English"],
    "banned_ethnic_group":[
       
    ],
    "banned_drivers":[
       
    ],
    "prefered_driver": null,
    "unsafe_for_female_driver":0,
    "unsafe_for_male_driver":0,
    "bording_time":300,
    "constraints" : ["AMB"]
 },
 {
    "id":33,
    "c":"AMB",
    "sdp":"SDP341941",
    "times":"11:00:00",
    "days":"M-T-W-TH-F",
    "name":"VALDEZ, MARIANA",
    "site":"SAN YSIDRO PACE",
    "destination":"3364 BEYER BLVD,SUITE 102, SAN YSIDRO, CA, 92173",
    "other":"",
    "full_address":"311 BEECH AVE, CHULA VISTA, CA 91910",
    "formatted_address":"311 BEECH AVE, CHULA VISTA, CA 91910, USA",
    "number":"311",
    "street":"BEECH AVE",
    "city":"CHULA VISTA",
    "state":"CA",
    "zip":"91910",
    "longitude":-117.089673,
    "latitude":32.63792,
    "spoken_languages": ["English"],
    "banned_ethnic_group":[
       
    ],
    "banned_drivers":[
       
    ],
    "prefered_driver": null,
    "unsafe_for_female_driver":0,
    "unsafe_for_male_driver":0,
    "bording_time":300,
    "constraints" : ["AMB"]
 },
 {
    "id":34,
    "c":"AMB",
    "sdp":"SDP005364",
    "times":"08:00:00",
    "days":"M-T-W-TH-F",
    "name":"GARCIA CORONADO, MARIA",
    "site":"SAN YSIDRO PACE",
    "destination":"3364 BEYER BLVD,SUITE 102, SAN YSIDRO, CA, 92173",
    "other":"",
    "full_address":"1250 5TH AVENUE, APT 804, BUILDING #8, CHULA VISTA, CA 91911",
    "formatted_address":"1250 5TH AVE, CHULA VISTA, CA 91911, USA",
    "number":"1250",
    "street":"5TH AVE",
    "city":"CHULA VISTA",
    "state":"CA",
    "zip":"91911",
    "longitude":-117.0754864,
    "latitude":32.6061695,
    "spoken_languages": ["English"],
    "banned_ethnic_group":[
       
    ],
    "banned_drivers":[
       
    ],
    "prefered_driver": null,
    "unsafe_for_female_driver":0,
    "unsafe_for_male_driver":0,
    "bording_time":300,
    "constraints" : ["AMB"]
 },
 {
    "id":35,
    "c":"AMB",
    "sdp":"SDP246827",
    "times":"08:00:00",
    "days":"M-T-W-TH-F",
    "name":"SILVA VALENCIA, GUADALUPE",
    "site":"SAN YSIDRO PACE",
    "destination":"3364 BEYER BLVD,SUITE 102, SAN YSIDRO, CA, 92173",
    "other":"",
    "full_address":"205 QUINTARD ST, APT E19, CHULA VISTA , CA 91911",
    "formatted_address":"205 QUINTARD ST, CHULA VISTA, CA 91911, USA",
    "number":"205",
    "street":"QUINTARD ST",
    "city":"CHULA VISTA",
    "state":"CA",
    "zip":"91911",
    "longitude":-117.0628171,
    "latitude":32.6056324,
    "spoken_languages": ["English"],
    "banned_ethnic_group":[
       
    ],
    "banned_drivers":[
       
    ],
    "prefered_driver": null,
    "unsafe_for_female_driver":0,
    "unsafe_for_male_driver":0,
    "bording_time":300,
    "constraints" : ["AMB"]
 },
 {
    "id":36,
    "c":"AMB",
    "sdp":"SDP000528",
    "times":"08:00:00",
    "days":"M-T-W-TH-F",
    "name":"GALVAN, AGUSTIN",
    "site":"SAN YSIDRO PACE",
    "destination":"3364 BEYER BLVD,SUITE 102, SAN YSIDRO, CA, 92173",
    "other":"PICK UP FIRST",
    "full_address":"1388 E PALOMAR ST, SPT 10, CHULA VISTA, CA 91913",
    "formatted_address":"1388 E PALOMAR ST, CHULA VISTA, CA 91913, USA",
    "number":"1388",
    "street":"E PALOMAR ST",
    "city":"CHULA VISTA",
    "state":"CA",
    "zip":"91913",
    "longitude":-116.9971304,
    "latitude":32.6233377,
    "spoken_languages": ["English"],
    "banned_ethnic_group":[
       
    ],
    "banned_drivers":[
       
    ],
    "prefered_driver": null,
    "unsafe_for_female_driver":0,
    "unsafe_for_male_driver":0,
    "bording_time":300,
    "constraints" : ["AMB"]
 },
 {
    "id":37,
    "c":"AMB",
    "sdp":"SDP118166",
    "times":"08:00:00",
    "days":"M-T-W-TH-F",
    "name":"CASTRO, PORFIRIO",
    "site":"SAN YSIDRO PACE",
    "destination":"3364 BEYER BLVD,SUITE 102, SAN YSIDRO, CA, 92173",
    "other":"",
    "full_address":"1535 MONTERREY PINE DR, SAN YSIDRO, CA 92173",
    "formatted_address":"1535 MONTERREY PINE DR SAN YSIDRO, CA 92173, USA",
    "number":"1535",
    "street":"MONTERREY PINE DR",
    "city":"SAN YSIDRO",
    "state":"CA",
    "zip":"92173",
    "longitude":-117.07162545626451,
    "latitude":32.56827962453819,
    "spoken_languages": ["English"],
    "banned_ethnic_group":[
       
    ],
    "banned_drivers":[
       
    ],
    "prefered_driver": null,
    "unsafe_for_female_driver":0,
    "unsafe_for_male_driver":0,
    "bording_time":300,
    "constraints" : ["AMB"]
 },
 {
    "id":38,
    "c":"AMB",
    "sdp":"SDP276732",
    "times":"09:00:00",
    "days":"M-T-W-TH-F",
    "name":"VAZQUEZ, TOMAS D",
    "site":"SAN YSIDRO PACE",
    "destination":"3364 BEYER BLVD,SUITE 102, SAN YSIDRO, CA, 92173",
    "other":"",
    "full_address":"107 E SEAWARD AVE, SAN YSIDRO, CA 92173",
    "formatted_address":"107 E SEAWARD AVE, SAN DIEGO, CA 92173, USA",
    "number":"107",
    "street":"E SEAWARD AVE",
    "city":"SAN DIEGO",
    "state":"CA",
    "zip":"92173",
    "longitude":-117.0438914,
    "latitude":32.5571777,
    "spoken_languages": ["English"],
    "banned_ethnic_group":[
       
    ],
    "banned_drivers":[
       
    ],
    "prefered_driver": null,
    "unsafe_for_female_driver":0,
    "unsafe_for_male_driver":0,
    "bording_time":300,
    "constraints" : ["AMB"]
 },
 {
    "id":39,
    "c":"AMB",
    "sdp":"SDP021846",
    "times":"09:00:00",
    "days":"M-T-W-TH-F",
    "name":"VALDIVIA PEREZ, JOSE",
    "site":"SAN YSIDRO PACE",
    "destination":"3364 BEYER BLVD,SUITE 102, SAN YSIDRO, CA, 92173",
    "other":"",
    "full_address":"3786 SUNSET LN, SAN YSIDRO, CA 92173",
    "formatted_address":"3786 SUNSET LN, SAN YSIDRO, CA 92173, USA",
    "number":"3786",
    "street":"SUNSET LN",
    "city":"SAN DIEGO",
    "state":"CA",
    "zip":"92173",
    "longitude":-117.0519628,
    "latitude":32.5584667,
    "spoken_languages": ["English"],
    "banned_ethnic_group":[
       
    ],
    "banned_drivers":[
       
    ],
    "prefered_driver": null,
    "unsafe_for_female_driver":0,
    "unsafe_for_male_driver":0,
    "bording_time":300,
    "constraints" : ["AMB"]
 },
 {
    "id":40,
    "c":"AMB",
    "sdp":"SDP018747",
    "times":"09:00:00",
    "days":"M-T-W-TH-F",
    "name":"ARISPE, ANDRE",
    "site":"SAN YSIDRO PACE",
    "destination":"3364 BEYER BLVD,SUITE 102, SAN YSIDRO, CA, 92173",
    "other":"",
    "full_address":"3730 BEYER BLVD, APT C, SAN YSIDRO, CA 92173",
    "formatted_address":"3730 BEYER BLVD, SAN YSIDRO, CA 92173, USA",
    "number":"3730",
    "street":"BEYER BLVD",
    "city":"SAN DIEGO",
    "state":"CA",
    "zip":"92173",
    "longitude":-117.0531352,
    "latitude":32.5613655,
    "spoken_languages": ["English"],
    "banned_ethnic_group":[
       
    ],
    "banned_drivers":[
       
    ],
    "prefered_driver": null,
    "unsafe_for_female_driver":0,
    "unsafe_for_male_driver":0,
    "bording_time":300,
    "constraints" : ["AMB"]
 },
 {
    "id":41,
    "c":"AMB",
    "sdp":"SDP000398",
    "times":"09:00:00",
    "days":"M-T-W-TH-F",
    "name":"HERNANDEZ, JOAQUIN",
    "site":"SAN YSIDRO PACE",
    "destination":"3364 BEYER BLVD,SUITE 102, SAN YSIDRO, CA, 92173",
    "other":"",
    "full_address":"265 QUINTARD ST, APT D45, CHULA VISTA, 91911",
    "formatted_address":"265 QUINTARD ST CHULA VISTA, 91911, USA",
    "number":"265",
    "street":"QUINTARD ST",
    "city":"CHULA VISTA",
    "state":"CA",
    "zip":"91911",
    "longitude":-117.06352067345054,
    "latitude":32.604174567104785,
    "spoken_languages": ["English"],
    "banned_ethnic_group":[
       
    ],
    "banned_drivers":[
       
    ],
    "prefered_driver": null,
    "unsafe_for_female_driver":0,
    "unsafe_for_male_driver":0,
    "bording_time":300,
    "constraints" : ["AMB"]
 },
 {
    "id":42,
    "c":"AMB",
    "sdp":"SDP001095",
    "times":"09:00:00",
    "days":"M-T-W-TH-F",
    "name":"HERNANDEZ, BLANCA",
    "site":"SAN YSIDRO PACE",
    "destination":"3364 BEYER BLVD,SUITE 102, SAN YSIDRO, CA, 92173",
    "other":"",
    "full_address":"1766 BRAMBLEWOOD CT, CHULA VISTA, CA 91913",
    "formatted_address":"1766 BRAMBLEWOOD CT CHULA VISTA, CA 91913, USA",
    "number":"1766",
    "street":"BRAMBLEWOOD CT",
    "city":"CHULA VISTA",
    "state":"CA",
    "zip":"91913",
    "longitude":-116.9837475,
    "latitude":32.6346877,
    "spoken_languages": ["English"],
    "banned_ethnic_group":[
       
    ],
    "banned_drivers":[
       
    ],
    "prefered_driver": null,
    "unsafe_for_female_driver":0,
    "unsafe_for_male_driver":0,
    "bording_time":300,
    "constraints" : ["AMB"]
 },
 {
    "id":43,
    "c":"AMB",
    "sdp":"SDP000619",
    "times":"11:00:00",
    "days":"M-T-W-TH-F",
    "name":"PEDRO, MARISCAL",
    "site":"SAN YSIDRO PACE",
    "destination":"3364 BEYER BLVD,SUITE 102, SAN YSIDRO, CA, 92173",
    "other":"",
    "full_address":"1734 SOLSTICE AVE, CHULA VISTA, CA 91915",
    "formatted_address":"1734 SOLSTICE AVE, CHULA VISTA, CA 91915, USA",
    "number":"1734",
    "street":"SOLSTICE AVE",
    "city":"CHULA VISTA",
    "state":"CA",
    "zip":"91915",
    "longitude":-116.96432183112043,
    "latitude":32.61818120885491, 
    "spoken_languages": ["English"],
    "banned_ethnic_group":[
       
    ],
    "banned_drivers":[
       
    ],
    "prefered_driver": null,
    "unsafe_for_female_driver":0,
    "unsafe_for_male_driver":0,
    "bording_time":300,
    "constraints" : ["AMB"]
 },
 {
    "id":44,
    "c":"AMB",
    "sdp":"SDP000618",
    "times":"11:00:00",
    "name":"ERNESTINA, MARISCAL",
    "site":"SAN YSIDRO PACE",
    "destination":"3364 BEYER BLVD,SUITE 102, SAN YSIDRO, CA, 92173",
    "other":"",
    "full_address":"1734 SOLSTICE AVE, CHULA VISTA, CA 91915",
    "formatted_address":"1734 SOLSTICE AVE, CHULA VISTA, CA 91915, USA",
    "number":"1734",
    "street":"SOLSTICE AVE",
    "city":"CHULA VISTA",
    "state":"CA",
    "zip":"91915",
    "longitude":-116.96432183112043,
    "latitude":32.61818120885491, 
    "spoken_languages": ["English"],
    "banned_ethnic_group":[
       
    ],
    "banned_drivers":[
       
    ],
    "prefered_driver": null,
    "unsafe_for_female_driver":0,
    "unsafe_for_male_driver":0,
    "bording_time":300,
    "constraints" : ["AMB"]
 },
 {
    "id":45,
    "c":"AMB",
    "sdp":"SDP000437",
    "times":"08:00:00",
    "days":"M-T-W-TH-F",
    "name":"QUINTANA, MARIA",
    "site":"CV",
    "destination":"880 3RD AVENUE, CHULA VISTA, CA, 91911",
    "other":"",
    "full_address":"667 5TH AVE, CHULA VISTA, CA 91910",
    "formatted_address":"667 5TH AVE, CHULA VISTA, CA 91910, USA",
    "number":"667",
    "street":"5TH AVE",
    "city":"CHULA VISTA",
    "state":"CA",
    "zip":"91910",
    "longitude":-117.0828329,
    "latitude":32.6264064,
    "spoken_languages": ["English"],
    "banned_ethnic_group":[
       
    ],
    "banned_drivers":[
       
    ],
    "prefered_driver": null,
    "unsafe_for_female_driver":0,
    "unsafe_for_male_driver":0,
    "bording_time":300,
    "constraints" : ["AMB"]
 },
 {
    "id":46,
    "c":"AMB",
    "sdp":"SDP001206",
    "times":"08:00:00",
    "days":"M-T-W-TH-F",
    "name":"ECHEVERRIA, ALBERTO",
    "site":"CV",
    "destination":"880 3RD AVENUE, CHULA VISTA, CA, 91911",
    "other":"",
    "full_address":"322 CAMINO ELEVADO, BONITA, CA 91902",
    "formatted_address":"322 CAMINO ELEVADO BONITA, CA 91902",
    "number":"322",
    "street":"CAMINO ELEVADO",
    "city":"BONITA",
    "state":"CA",
    "zip":"91902",
    "longitude":-117.02432835995518,
    "latitude":32.6554729704374, 
    "spoken_languages": ["English"],
    "banned_ethnic_group":[
       
    ],
    "banned_drivers":[
       
    ],
    "prefered_driver": null,
    "unsafe_for_female_driver":0,
    "unsafe_for_male_driver":0,
    "bording_time":300,
    "constraints" : ["AMB"]
 },
 {
    "id":47,
    "c":"AMB",
    "sdp":"SDP000943",
    "times":"08:00:00",
    "days":"M-T-W-TH-F",
    "name":"TORRES, NANCY",
    "site":"CV",
    "destination":"880 3RD AVENUE, CHULA VISTA, CA, 91911",
    "other":"",
    "full_address":"8 VIA VENETO, CHULA VISTA, CA 91910",
    "formatted_address":"8 VIA VENETO CHULA VISTA, CA 91910",
    "number":"8",
    "street":"VIA VENETO",
    "city":"CHULA VISTA",
    "state":"CA",
    "zip":"91910",
    "longitude":-117.08579086577933,
    "latitude":32.65173634732786, 
    "spoken_languages": ["English"],
    "banned_ethnic_group":[
       
    ],
    "banned_drivers":[
       
    ],
    "prefered_driver": null,
    "unsafe_for_female_driver":0,
    "unsafe_for_male_driver":0,
    "bording_time":300,
    "constraints" : ["AMB"]
 },
 {
    "id":48,
    "c":"AMB",
    "sdp":"SDP496723",
    "times":"11:00:00",
    "days":"M-T-W-TH-F",
    "name":"PARTIDA, ANSELMA",
    "site":"CV",
    "destination":"880 3RD AVENUE, CHULA VISTA, CA, 91911",
    "other":"",
    "full_address":"325 54TH ST, SPC 39, SAN DIEGO, CA 92114",
    "formatted_address":"325 54TH ST, SAN DIEGO, CA 92114, USA",
    "number":"325",
    "street":"54TH ST",
    "city":"SAN DIEGO",
    "state":"CA",
    "zip":"92114",
    "longitude":-117.0787761,
    "latitude":32.7085701,
    "spoken_languages": ["English"],
    "banned_ethnic_group":[
       
    ],
    "banned_drivers":[
       
    ],
    "prefered_driver": null,
    "unsafe_for_female_driver":0,
    "unsafe_for_male_driver":0,
    "bording_time":300,
    "constraints" : ["AMB"]
 },
 {
    "id":49,
    "c":"AMB",
    "sdp":"SDP020833",
    "times":"11:00:00",
    "days":"M-T-W-TH-F",
    "name":"MOLINA, GUILLERMO",
    "site":"CV",
    "destination":"880 3RD AVENUE, CHULA VISTA, CA, 91911",
    "other":"",
    "full_address":"5130 GROVELAND DR, SAN DIEGO, CA 92114",
    "formatted_address":"5130 GROVELAND DR SAN DIEGO, CA 92114, USA",
    "number":"5130",
    "street":"GROVELAND DR",
    "city":"SAN DIEGO",
    "state":"CA",
    "zip":"92114",
    "longitude":-117.0843269,
    "latitude":32.7079229,
    "spoken_languages": ["English"],
    "banned_ethnic_group":[
       
    ],
    "banned_drivers":[
       
    ],
    "prefered_driver": null,
    "unsafe_for_female_driver":0,
    "unsafe_for_male_driver":0,
    "bording_time":300,
    "constraints" : ["AMB"]
 },
 {
    "id":50,
    "c":"AMB",
    "sdp":"SDP482783",
    "times":"11:00:00",
    "days":"M-T-W-TH-F",
    "name":"CHACON, ALICIA",
    "site":"CV",
    "destination":"880 3RD AVENUE, CHULA VISTA, CA, 91911",
    "other":"",
    "full_address":"504 WEST ST, SAN DIEGO, CA 92113",
    "formatted_address":"504 WEST ST SAN DIEGO, CA 92113, USA",
    "number":"504",
    "street":"WEST ST",
    "city":"SAN DIEGO",
    "state":"CA",
    "zip":"92113",
    "longitude": -117.09721948694326,
    "latitude":32.70055049057554,
    "spoken_languages": ["English"],
    "banned_ethnic_group":[
       
    ],
    "banned_drivers":[
       
    ],
    "prefered_driver": null,
    "unsafe_for_female_driver":0,
    "unsafe_for_male_driver":0,
    "bording_time":300,
    "constraints" : ["AMB"]
 },
 {
    "id":51,
    "c":"AMB",
    "sdp":"SDP000186",
    "times":"09:00:00",
    "days":"M-T-W-TH-F",
    "name":"WILLIAMS, ANAME",
    "site":"SAN YSIDRO PACE",
    "destination":"3364 BEYER BLVD,SUITE 102, SAN YSIDRO, CA, 92173",
    "other":"",
    "full_address":"811 S 47TH ST, APT A, SAN DIEGO, CA 92113",
    "formatted_address":"811 S 47TH ST SAN DIEGO, CA 92113, USA",
    "number":"811",
    "street":"S 47TH ST",
    "city":"SAN DIEGO",
    "state":"CA",
    "zip":"92113",
    "longitude":-117.0931755,
    "latitude":32.697349,
    "spoken_languages": ["English"],
    "banned_ethnic_group":[
       
    ],
    "banned_drivers":[
       
    ],
    "prefered_driver": null,
    "unsafe_for_female_driver":0,
    "unsafe_for_male_driver":0,
    "bording_time":300,
    "constraints" : ["AMB"]
 },
 {
    "id":52,
    "c":"AMB",
    "sdp":"SDP313166",
    "times":"09:00:00",
    "days":"M-T-W-TH-F",
    "name":"VENTURA, LUCIA",
    "site":"SAN YSIDRO PACE",
    "destination":"3364 BEYER BLVD,SUITE 102, SAN YSIDRO, CA, 92173",
    "other":"",
    "full_address":"3228 55TH ST, SAN DIEGO, CA 92105",
    "formatted_address":"3228 55TH ST, SAN DIEGO, CA 92105, USA",
    "number":"3228",
    "street":"55TH ST",
    "city":"SAN DIEGO",
    "state":"CA",
    "zip":"92105",
    "longitude":-117.0778683,
    "latitude":32.7405648,
    "spoken_languages": ["English"],
    "banned_ethnic_group":[
       
    ],
    "banned_drivers":[
       
    ],
    "prefered_driver": null,
    "unsafe_for_female_driver":0,
    "unsafe_for_male_driver":0,
    "bording_time":300,
    "constraints" : ["AMB"]
 },
 {
    "id":53,
    "c":"AMB",
    "sdp":"SDP549432",
    "times":"09:00:00",
    "days":"M-T-W-TH-F",
    "name":"ZUBIATE, ALMA",
    "site":"SAN YSIDRO PACE",
    "destination":"3364 BEYER BLVD,SUITE 102, SAN YSIDRO, CA, 92173",
    "other":"",
    "full_address":"929 4TH AVE, UNIT 1216, SAN DIEGO, CA 92101",
    "formatted_address":"929 4TH AVE SAN DIEGO, CA 92101, USA",
    "number":"929",
    "street":"4TH AVE",
    "city":"SAN DIEGO",
    "state":"CA",
    "zip":"92101",
    "longitude":-117.16096405995381,
    "latitude":32.71525554573954, 
    "spoken_languages": ["English"],
    "banned_ethnic_group":[
       
    ],
    "banned_drivers":[
       
    ],
    "prefered_driver": null,
    "unsafe_for_female_driver":0,
    "unsafe_for_male_driver":0,
    "bording_time":300,
    "constraints" : ["AMB"]
 },
 {
    "id":54,
    "c":"AMB",
    "sdp":"SDP298941",
    "times":"09:00:00",
    "days":"M-T-W-TH-F",
    "name":"RODRIGUEZ, VIRGINIA",
    "site":"SAN YSIDRO PACE",
    "destination":"3364 BEYER BLVD,SUITE 102, SAN YSIDRO, CA, 92173",
    "other":"",
    "full_address":"2632 E PLAZA BLVD, APT 207, NATIONAL CITY, CA 91950",
    "formatted_address":"2632 E PLAZA BLVD, NATIONAL CITY, CA 91950, USA",
    "number":"2632",
    "street":"E PLAZA BLVD",
    "city":"NATIONAL CITY",
    "state":"CA",
    "zip":"91950",
    "longitude":-117.0788702,
    "latitude":32.6800081,
    "spoken_languages": ["English"],
    "banned_ethnic_group":[
       
    ],
    "banned_drivers":[
       
    ],
    "prefered_driver": null,
    "unsafe_for_female_driver":0,
    "unsafe_for_male_driver":0,
    "bording_time":300,
    "constraints" : ["AMB"]
 },
 {
    "id":55,
    "c":"AMB",
    "sdp":"SDP224646",
    "times":"09:00:00",
    "days":"M-T-W-TH-F",
    "name":"GUERRERO, PRIMITIVO",
    "site":"SAN YSIDRO PACE",
    "destination":"3364 BEYER BLVD,SUITE 102, SAN YSIDRO, CA, 92173",
    "other":"",
    "full_address":"548 PALOMAR ST, APT 23, CHULA VISTA, CA 91911",
    "formatted_address":"548 PALOMAR ST CHULA VISTA, CA 91911, USA",
    "number":"548",
    "street":"PALOMAR ST",
    "city":"CHULA VISTA",
    "state":"CA",
    "zip":"91911",
    "longitude":-117.07577237529667,
    "latitude":32.605290555169546, 
    "spoken_languages": ["English"],
    "banned_ethnic_group":[
       
    ],
    "banned_drivers":[
       
    ],
    "prefered_driver": null,
    "unsafe_for_female_driver":0,
    "unsafe_for_male_driver":0,
    "bording_time":300,
    "constraints" : ["AMB"]
 },
 {
    "id":56,
    "c":"AMB",
    "sdp":"SDP610826",
    "times":"11:00:00",
    "days":"M-T-W-TH-F",
    "name":"MEJIA MEJIA, SERGIO",
    "site":"CV",
    "destination":"880 3RD AVENUE, CHULA VISTA, CA, 91911",
    "other":"",
    "full_address":"1261 MEDICAL CENTER DR, #109, CHULA VISTA, CA 91911",
    "formatted_address":"1261 MEDICAL CENTER DR CHULA VISTA, CA 91911, USA",
    "number":"1261",
    "street":"MEDICAL CENTER DR",
    "city":"CHULA VISTA",
    "state":"CA",
    "zip":"91911",
    "longitude":-117.02661567345027,
    "latitude":32.61963314872905, 
    "spoken_languages": ["English"],
    "banned_ethnic_group":[
       
    ],
    "banned_drivers":[
       
    ],
    "prefered_driver": null,
    "unsafe_for_female_driver":0,
    "unsafe_for_male_driver":0,
    "bording_time":300,
    "constraints" : ["AMB"]
 },
 {
    "id":57,
    "c":"AMB",
    "sdp":"SDP592091",
    "times":"09:00:00",
    "days":"M-T-W-TH-F",
    "name":"YOUNG, EUGENE",
    "site":"SAN YSIDRO PACE",
    "destination":"3364 BEYER BLVD,SUITE 102, SAN YSIDRO, CA, 92173",
    "other":"",
    "full_address":"1697 DONAX AVE, SAN DIEGO, CA 92154",
    "formatted_address":"1697 DONAX AVE SAN DIEGO, CA 92154, USA",
    "number":"1697",
    "street":"DONAX AVE",
    "city":"SAN DIEGO",
    "state":"CA",
    "zip":"92154",
    "longitude":-117.09723123112131,
    "latitude":32.58199144960173, 
    "spoken_languages": ["English"],
    "banned_ethnic_group":[
       
    ],
    "banned_drivers":[
       
    ],
    "prefered_driver": null,
    "unsafe_for_female_driver":0,
    "unsafe_for_male_driver":0,
    "bording_time":300,
    "constraints" : ["AMB"]
 },
 {
    "id":58,
    "c":"AMB",
    "sdp":"SDP547266",
    "times":"09:00:00",
    "days":"M-T-W-TH-F",
    "name":"HERANDEZ, SAUL",
    "site":"SAN YSIDRO PACE",
    "destination":"3364 BEYER BLVD,SUITE 102, SAN YSIDRO, CA, 92173",
    "other":"",
    "full_address":"519 EMORY ST, IMPERIAL BEACH, CA 91932",
    "formatted_address":"519 EMORY ST IMPERIAL BEACH, CA 91932, USA",
    "number":"519",
    "street":"EMORY ST",
    "city":"IMPERIAL BEACH",
    "state":"CA",
    "zip":"91932",
    "longitude":-117.11292618879155,
    "latitude":32.58819085383914, 
    "spoken_languages": ["English"],
    "banned_ethnic_group":[
       
    ],
    "banned_drivers":[
       
    ],
    "prefered_driver": null,
    "unsafe_for_female_driver":0,
    "unsafe_for_male_driver":0,
    "bording_time":300,
    "constraints" : ["AMB"]
 },
 {
    "id":59,
    "c":"AMB",
    "sdp":"SDP425896",
    "times":"09:00:00",
    "days":"M-T-W-TH-F",
    "name":"TORRES OLVERA, MARIA",
    "site":"SAN YSIDRO PACE",
    "destination":"3364 BEYER BLVD,SUITE 102, SAN YSIDRO, CA, 92173",
    "other":"",
    "full_address":"1188 BEYER WAY, SAN DIEGO, CA 92154",
    "formatted_address":"1188 BEYER WAY, SAN DIEGO, CA 92154, USA",
    "number":"1188",
    "street":"BEYER WAY",
    "city":"SAN DIEGO",
    "state":"CA",
    "zip":"92154",
    "longitude": -117.06616561762698,
    "latitude":32.57466396179393,
    "spoken_languages": ["English"],
    "banned_ethnic_group":[
       
    ],
    "banned_drivers":[
       
    ],
    "prefered_driver": null,
    "unsafe_for_female_driver":0,
    "unsafe_for_male_driver":0,
    "bording_time":300,
    "constraints" : ["AMB"]
 },
 {
    "id":60,
    "c":"AMB",
    "sdp":"SDP297208",
    "times":"09:00:00",
    "days":"M-T-W-TH-F",
    "name":"RODRIGUEZ, GUSTAVO R",
    "site":"SAN YSIDRO PACE",
    "destination":"3364 BEYER BLVD,SUITE 102, SAN YSIDRO, CA, 92173",
    "other":"",
    "full_address":"753 12TH ST, IMPERIAL BEACH, CA 91932",
    "formatted_address":"753 12TH ST IMPERIAL BEACH, CA 91932, USA",
    "number":"753",
    "street":"12TH ST",
    "city":"IMPERIAL BEACH",
    "state":"CA",
    "zip":"91932",
    "longitude": -117.10782007345098,
    "latitude":32.58309576640995, 
    "spoken_languages": ["English"],
    "banned_ethnic_group":[
       
    ],
    "banned_drivers":[
       
    ],
    "prefered_driver": null,
    "unsafe_for_female_driver":0,
    "unsafe_for_male_driver":0,
    "bording_time":300,
    "constraints" : ["AMB"]
 },
 {
    "id":60,
    "c":"AMB",
    "sdp":"SDP428944",
    "times":"11:00:00",
    "days":"M-T-W-TH-F",
    "name":"SAM, DORA",
    "site":"SAN YSIDRO PACE",
    "destination":"3364 BEYER BLVD,SUITE 102, SAN YSIDRO, CA, 92173",
    "other":"",
    "full_address":"2632 CAMINITO ESPINO, SAN DIEGO, CA 92154",
    "formatted_address":"2632 CAMINITO ESPINO SAN DIEGO, CA 92154, USA",
    "number":"2632",
    "street":"CAMINITO ESPINO",
    "city":"SAN DIEGO",
    "state":"CA",
    "zip":"92154",
    "longitude": -117.07670991762696,
    "latitude":32.574603203023095, 
    "spoken_languages": ["English"],
    "banned_ethnic_group":[
       
    ],
    "banned_drivers":[
       
    ],
    "prefered_driver": null,
    "unsafe_for_female_driver":0,
    "unsafe_for_male_driver":0,
    "bording_time":300,
    "constraints" : ["AMB"]
 },
 {
    "id":61,
    "c":"AMB",
    "sdp":"SDP008388",
    "times":"11:00:00",
    "days":"M-T-W-TH-F",
    "name":"MACIAS, BERTA",
    "site":"SAN YSIDRO PACE",
    "destination":"3364 BEYER BLVD,SUITE 102, SAN YSIDRO, CA, 92173",
    "other":"",
    "full_address":"1065 GRANJAS RD, #136, CHULA VISTA, CA 91911",
    "formatted_address":"1065 GRANJAS RD CHULA VISTA, CA 91911, USA",
    "number":"1065",
    "street":"GRANJAS RD",
    "city":"CHULA VISTA",
    "state":"CA",
    "zip":"91911",
    "longitude": -117.07947533112082,
    "latitude":32.61185287729575, 
    "spoken_languages": ["English"],
    "banned_ethnic_group":[
       
    ],
    "banned_drivers":[
       
    ],
    "prefered_driver": null,
    "unsafe_for_female_driver":0,
    "unsafe_for_male_driver":0,
    "bording_time":300,
    "constraints" : ["AMB"]
 },
 {
    "id":62,
    "c":"AMB",
    "sdp":"SDP000489",
    "times":"11:00:00",
    "days":"M-T-W-TH-F",
    "name":"MORALES, HUMBERTO",
    "site":"SAN YSIDRO PACE",
    "destination":"3364 BEYER BLVD,SUITE 102, SAN YSIDRO, CA, 92173",
    "other":"",
    "full_address":"147 W PARK AVE, SAN YSIDRO, CA 92173",
    "formatted_address":"147 W PARK AVE SAN YSIDRO, CA 92173",
    "number":"147",
    "street":"W PARK AVE",
    "city":"SAN YSIDRO",
    "state":"CA",
    "zip":"92173",
    "longitude": -117.04474114461635,
    "latitude":32.55429770293432, 
    "spoken_languages": ["English"],
    "banned_ethnic_group":[
       
    ],
    "banned_drivers":[
       
    ],
    "prefered_driver": null,
    "unsafe_for_female_driver":0,
    "unsafe_for_male_driver":0,
    "bording_time":300,
    "constraints" : ["AMB"]
 },
 {
    "id":63,
    "c":"AMB",
    "sdp":"SDP436154",
    "times":"09:00:00",
    "days":"M-T-W-TH-F",
    "name":"DIAZ, PEDRO",
    "site":"CV",
    "destination":"880 3RD AVENUE, CHULA VISTA, CA, 91911",
    "other":"",
    "full_address":"915 25TH ST, #2, SAN DIEGO, 92102",
    "formatted_address":"915 25TH ST, SAN DIEGO, 92102",
    "number":"915",
    "street":"25TH ST",
    "city":"SAN DIEGO",
    "state":"CA",
    "zip":"92102",
    "longitude": -117.13996734432651,
    "latitude":32.71528871876194, 
    "spoken_languages": ["English"],
    "banned_ethnic_group":[
       
    ],
    "banned_drivers":[
       
    ],
    "prefered_driver": null,
    "unsafe_for_female_driver":0,
    "unsafe_for_male_driver":0,
    "bording_time":300,
    "constraints" : ["AMB"]
 },
 {
    "id":64,
    "c":"AMB",
    "sdp":"SDP423569",
    "times":"09:00:00",
    "days":"M-T-W-TH-F",
    "name":"GUZMAN, HERMELINDA",
    "site":"CV",
    "destination":"880 3RD AVENUE, CHULA VISTA, CA, 91911",
    "other":"",
    "full_address":"1543 Q AVE, NATIONAL CITY, CA 91950",
    "formatted_address":"1543 Q AVE NATIONAL CITY, CA 91950",
    "number":"1543",
    "street":"Q AVE",
    "city":"NATIONAL CITY",
    "state":"CA",
    "zip":"91950",
    "longitude":-117.0866442578209,
    "latitude":32.674503856429965, 
    "spoken_languages": ["English"],
    "banned_ethnic_group":[
       
    ],
    "banned_drivers":[
       
    ],
    "prefered_driver": null,
    "unsafe_for_female_driver":0,
    "unsafe_for_male_driver":0,
    "bording_time":300,
    "constraints" : ["AMB"]
 },
 {
    "id":65,
    "c":"AMB",
    "sdp":"SDP434718",
    "times":"09:00:00",
    "days":"M-T-W-TH-F",
    "name":"LAFRANCE, CHANTAL",
    "site":"CV",
    "destination":"880 3RD AVENUE, CHULA VISTA, CA, 91911",
    "other":"",
    "full_address":"221 E ONEIDA ST, CHULA VISTA, CA 91911",
    "formatted_address":"221 E ONEIDA ST CHULA VISTA, CA 91911",
    "number":"221",
    "street":"E ONEIDA ST",
    "city":"CHULA VISTA",
    "state":"CA",
    "zip":"91950",
    "longitude":-117.04641197316427,
    "latitude":32.61501959554256, 
    "spoken_languages": ["English"],
    "banned_ethnic_group":[
       
    ],
    "banned_drivers":[
       
    ],
    "prefered_driver": null,
    "unsafe_for_female_driver":0,
    "unsafe_for_male_driver":0,
    "bording_time":300,
    "constraints" : ["AMB"]
 },
 {
    "id":66,
    "c":"AMB",
    "sdp":"SDP001768",
    "times":"11:00:00",
    "days":"M-T-W-TH-F",
    "name":"PERALES SOTO, MARIA LUCI",
    "site":"CV",
    "destination":"880 3RD AVENUE, CHULA VISTA, CA, 91911",
    "other":"",
    "full_address":"447 CASSELMAN ST, APT C, CHULA VISTA, CA 91910",
    "formatted_address":"447 CASSELMAN ST, CHULA VISTA, CA 91910, USA",
    "number":"447",
    "street":"CASSELMAN ST",
    "city":"CHULA VISTA",
    "state":"CA",
    "zip":"91910",
    "longitude":-117.0890206,
    "latitude":32.6476327,
    "spoken_languages": ["English"],
    "banned_ethnic_group":[
       
    ],
    "banned_drivers":[
       
    ],
    "prefered_driver": null,
    "unsafe_for_female_driver":0,
    "unsafe_for_male_driver":0,
    "bording_time":300,
    "constraints" : ["AMB"]
 },
 {
    "id":67,
    "c":"AMB",
    "sdp":"SDP494052",
    "times":"11:00:00",
    "days":"M-T-W-TH-F",
    "name":"RAMIREZ, AURELIO",
    "site":"CV",
    "destination":"880 3RD AVENUE, CHULA VISTA, CA, 91911",
    "other":"",
    "full_address":"3438 MENARD ST, NATIONAL CITY, CA 91950",
    "formatted_address":"3438 MENARD ST NATIONAL CITY, CA 91950, USA",
    "number":"3438",
    "street":"MENARD ST",
    "city":"NATIONAL CITY",
    "state":"CA",
    "zip":"91950",
    "longitude":-117.0611807,
    "latitude":32.6606973,
    "spoken_languages": ["English"],
    "banned_ethnic_group":[
       
    ],
    "banned_drivers":[
       
    ],
    "prefered_driver": null,
    "unsafe_for_female_driver":0,
    "unsafe_for_male_driver":0,
    "bording_time":300,
    "constraints" : ["AMB"]
 },
 {
    "id":68,
    "c":"AMB",
    "sdp":"SDP105493",
    "times":"11:00:00",
    "days":"M-T-W-TH-F",
    "name":"MEDINA, MARIA",
    "site":"CV",
    "destination":"880 3RD AVENUE, CHULA VISTA, CA, 91911",
    "other":"",
    "full_address":"1403 E 6TH ST, NATIONAL CITY, CA 91950",
    "formatted_address":"1403 E 6TH ST NATIONAL CITY, CA 91950, USA",
    "number":"1403",
    "street":"E 6TH ST",
    "city":"NATIONAL CITY",
    "state":"CA",
    "zip":"91950",
    "longitude":-117.0932675,
    "latitude":32.6817639,
    "spoken_languages": ["English"],
    "banned_ethnic_group":[
       
    ],
    "banned_drivers":[
       
    ],
    "prefered_driver": null,
    "unsafe_for_female_driver":0,
    "unsafe_for_male_driver":0,
    "bording_time":300,
    "constraints" : ["AMB"]
 },
 {
    "id":69,
    "c":"AMB",
    "sdp":"SDP412187",
    "times":"11:00:00",
    "days":"M-T-W-TH-F",
    "name":"ROTHER, PATRICIA",
    "site":"CV",
    "destination":"880 3RD AVENUE, CHULA VISTA, CA, 91911",
    "other":"",
    "full_address":"332 C ST, APT 33, CHULA VISTA, CA 91910",
    "formatted_address":"332 C ST, CHULA VISTA, CA 91910, USA",
    "number":"332",
    "street":"C ST",
    "city":"CHULA VISTA",
    "state":"CA",
    "zip":"91910",
    "longitude":-117.0851146,
    "latitude":32.6510447,
    "spoken_languages": ["English"],
    "banned_ethnic_group":[
       
    ],
    "banned_drivers":[
       
    ],
    "prefered_driver": null,
    "unsafe_for_female_driver":0,
    "unsafe_for_male_driver":0,
    "bording_time":300,
    "constraints" : ["AMB"]
 },
 {
    "id":70,
    "c":"AMB",
    "sdp":"SDP399309",
    "times":"11:00:00",
    "days":"M-T-W-TH-F",
    "name":"LOPEZ, ZELMIRA",
    "site":"CV",
    "destination":"880 3RD AVENUE, CHULA VISTA, CA, 91911",
    "other":"",
    "full_address":"600 ANITA ST, SPC 33, CHULA VISTA, CA 91911",
    "formatted_address":"600 ANITA ST, CHULA VISTA, CA 91911, USA",
    "number":"600",
    "street":"ANITA ST",
    "city":"CHULA VISTA",
    "state":"CA",
    "zip":"91911",
    "longitude":-117.0792475020001,
    "latitude":32.599834860694294, 
    "spoken_languages": ["English"],
    "banned_ethnic_group":[
       
    ],
    "banned_drivers":[
       
    ],
    "prefered_driver": null,
    "unsafe_for_female_driver":0,
    "unsafe_for_male_driver":0,
    "bording_time":300,
    "constraints" : ["AMB"]
 },
 {
    "id":71,
    "c":"AMB",
    "sdp":"SDP252135",
    "times":"11:00:00",
    "days":"M-T-W-TH-F",
    "name":"MORENO, LEONOR",
    "site":"CV",
    "destination":"880 3RD AVENUE, CHULA VISTA, CA, 91911",
    "other":"",
    "full_address":"476 ORSETT, CHULA VISTA, CA 91911",
    "formatted_address":"476 ORSETT ST, CHULA VISTA, CA 91911, USA",
    "number":"476",
    "street":"ORSETT ST",
    "city":"CHULA VISTA",
    "state":"CA",
    "zip":"91911",
    "longitude":-117.0739608,
    "latitude":32.6063492,
    "spoken_languages": ["English"],
    "banned_ethnic_group":[
       
    ],
    "banned_drivers":[
       
    ],
    "prefered_driver": null,
    "unsafe_for_female_driver":0,
    "unsafe_for_male_driver":0,
    "bording_time":300,
    "constraints" : ["AMB"]
 },
 {
    "id":72,
    "c":"AMB",
    "sdp":"SDP001723",
    "times":"11:00:00",
    "days":"M-T-W-TH-F",
    "name":"REYNOSO, ZACARIAS",
    "site":"SAN YSIDRO PACE",
    "destination":"3364 BEYER BLVD,SUITE 102, SAN YSIDRO, CA, 92173",
    "other":"",
    "full_address":"1570 TERRACE PINE LN, SAN YSIDRO, CA 92173",
    "formatted_address":"1570 TERRACE PINE LN SAN YSIDRO, CA 92173, USA",
    "number":"1570",
    "street":"TERRACE PINE LN",
    "city":"SAN YSIDRO",
    "state":"CA",
    "zip":"92173",
    "longitude":-117.07366230200076,
    "latitude":32.56806563396764, 
    "spoken_languages": ["English"],
    "banned_ethnic_group":[
       
    ],
    "banned_drivers":[
       
    ],
    "prefered_driver": null,
    "unsafe_for_female_driver":0,
    "unsafe_for_male_driver":0,
    "bording_time":300,
    "constraints" : ["AMB"]
 },
 {
    "id":73,
    "c":"AMB",
    "sdp":"SDP001724",
    "times":"11:00:00",
    "days":"M-T-W-TH-F",
    "name":"REYNOSO, MARIA",
    "site":"SAN YSIDRO PACE",
    "destination":"3364 BEYER BLVD,SUITE 102, SAN YSIDRO, CA, 92173",
    "other":"",
    "full_address":"1570 TERRACE PINE LN, SAN YSIDRO, CA 92173",
    "formatted_address":"1570 TERRACE PINE LN SAN YSIDRO, CA 92173, USA",
    "number":"1570",
    "street":"TERRACE PINE LN",
    "city":"SAN YSIDRO",
    "state":"CA",
    "zip":"92173",
    "longitude":-117.07366230200076,
    "latitude":32.56806563396764, 
    "spoken_languages": ["English"],
    "banned_ethnic_group":[
       
    ],
    "banned_drivers":[
       
    ],
    "prefered_driver": null,
    "unsafe_for_female_driver":0,
    "unsafe_for_male_driver":0,
    "bording_time":300,
    "constraints" : ["AMB"]
 },
 {
    "id":74,
    "c":"AMB",
    "sdp":"SDP365843",
    "times":"08:00:00",
    "days":"M-T-W-TH-F",
    "name":"VILLALOBOS, ELIAS",
    "site":"SAN YSIDRO PACE",
    "destination":"3364 BEYER BLVD,SUITE 102, SAN YSIDRO, CA, 92173",
    "other":"",
    "full_address":"131 E SEAWARD, SAN DIEGO, CA 92173",
    "formatted_address":"131 E SEAWARD AVE, SAN DIEGO, CA 92173, USA",
    "number":"131",
    "street":"E SEAWARD AVE",
    "city":"SAN DIEGO",
    "state":"CA",
    "zip":"92173",
    "longitude":-117.0431229,
    "latitude":32.5572789,
    "spoken_languages": ["English"],
    "banned_ethnic_group":[
       
    ],
    "banned_drivers":[
       
    ],
    "prefered_driver": null,
    "unsafe_for_female_driver":0,
    "unsafe_for_male_driver":0,
    "bording_time":300,
    "constraints" : ["AMB"]
 },
 {
    "id":75,
    "c":"AMB",
    "sdp":"SDP587854",
    "times":"08:00:00",
    "days":"M-T-W-TH-F",
    "name":"SANCHEZ, GUADALUPE",
    "site":"SAN YSIDRO PACE",
    "destination":"3364 BEYER BLVD,SUITE 102, SAN YSIDRO, CA, 92173",
    "other":"",
    "full_address":"3878 BEYER BLVD, #23, SAN YSIDRO, CA 92173",
    "formatted_address":"3878 BEYER BLVD, SAN DIEGO, CA 92173, USA",
    "number":"3878",
    "street":"BEYER BLVD",
    "city":"SAN DIEGO",
    "state":"CA",
    "zip":"92173",
    "longitude":-117.0504686,
    "latitude":32.5601014,
    "spoken_languages": ["English"],
    "banned_ethnic_group":[
       
    ],
    "banned_drivers":[
       
    ],
    "prefered_driver": null,
    "unsafe_for_female_driver":0,
    "unsafe_for_male_driver":0,
    "bording_time":300,
    "constraints" : ["AMB"]
 },
 {
    "id":76,
    "c":"AMB",
    "sdp":"SDP313535",
    "times":"08:00:00",
    "days":"M-T-W-TH-F",
    "name":"LLANOS, OLGA",
    "site":"CV",
    "destination":"880 3RD AVENUE, CHULA VISTA, CA, 91911",
    "other":"",
    "full_address":"2154 NEWTON AVE, SAN DIEGO, CA 92113",
    "formatted_address":"2154 NEWTON AVE SAN DIEGO, CA 92113, USA",
    "number":"2154",
    "street":"NEWTON AVE",
    "city":"SAN DIEGO",
    "state":"CA",
    "zip":"92113",
    "longitude":-117.1414343,
    "latitude":32.6970596,
    "spoken_languages": ["English"],
    "banned_ethnic_group":[
       
    ],
    "banned_drivers":[
       
    ],
    "prefered_driver": null,
    "unsafe_for_female_driver":0,
    "unsafe_for_male_driver":0,
    "bording_time":300,
    "constraints" : ["AMB"]
 },
 {
    "id":77,
    "c":"AMB",
    "sdp":"SDP277381",
    "times":"09:00:00",
    "days":"M-T-W-TH-F",
    "name":"MEJIA, FRANCISCO",
    "site":"CV",
    "destination":"880 3RD AVENUE, CHULA VISTA, CA, 91911",
    "other":"",
    "full_address":"662 CEDAR AVE, CHULA VISTA, CA 91910",
    "formatted_address":"662 CEDAR AVE, CHULA VISTA, CA 91910, USA",
    "number":"662",
    "street":"CEDAR AVE",
    "city":"CHULA VISTA",
    "state":"CA",
    "zip":"91910",
    "longitude":-117.0844878,
    "latitude":32.626063,
    "spoken_languages": ["English"],
    "banned_ethnic_group":[
       
    ],
    "banned_drivers":[
       
    ],
    "prefered_driver": null,
    "unsafe_for_female_driver":0,
    "unsafe_for_male_driver":0,
    "bording_time":300,
    "constraints" : ["AMB"]
 },
 {
    "id":78,
    "c":"AMB",
    "sdp":"SDP278535",
    "times":"09:00:00",
    "days":"M-T-W-TH-F",
    "name":"MEJIA, FRANCISCA",
    "site":"CV",
    "destination":"880 3RD AVENUE, CHULA VISTA, CA, 91911",
    "other":"",
    "full_address":"662 CEDAR AVE, CHULA VISTA, CA 91910",
    "formatted_address":"662 CEDAR AVE CHULA VISTA, CA 91910, USA",
    "number":"662",
    "street":"CEDAR AVE",
    "city":"CHULA VISTA",
    "state":"CA",
    "zip":"91910",
    "longitude":-117.0844878,
    "latitude":32.626063,
    "spoken_languages": ["English"],
    "banned_ethnic_group":[
       
    ],
    "banned_drivers":[
       
    ],
    "prefered_driver": null,
    "unsafe_for_female_driver":0,
    "unsafe_for_male_driver":0,
    "bording_time":300,
    "constraints" : ["AMB"]
 },
 {
    "id":79,
    "c":"AMB",
    "sdp":"SDP000704",
    "times":"08:00:00",
    "days":"M-T-W-TH-F",
    "name":"LEAL RICARDI, LOURDES LULU",
    "site":"CV",
    "destination":"880 3RD AVENUE, CHULA VISTA, CA, 91911",
    "other":"",
    "full_address":"1814 5TH AVE, APT 214, SAN DIEGO, CA 92101",
    "formatted_address":"1814 5TH AVE, SAN DIEGO, CA 92101, USA",
    "number":"1814",
    "street":"5TH AVE",
    "city":"SAN DIEGO",
    "state":"CA",
    "zip":"92101",
    "longitude":-117.1605279,
    "latitude":32.7243098,
    "spoken_languages": ["English"],
    "banned_ethnic_group":[
       
    ],
    "banned_drivers":[
       
    ],
    "prefered_driver": 1,
    "unsafe_for_female_driver":0,
    "unsafe_for_male_driver":0,
    "bording_time":300,
    "constraints" : ["AMB"]
 },
 {
    "id":80,
    "c":"AMB",
    "sdp":"SDP545449",
    "times":"09:00:00",
    "days":"M-T-W-TH-F",
    "name":"SKUTSCH, ANA",
    "site":"CV",
    "destination":"880 3RD AVENUE, CHULA VISTA, CA, 91911",
    "other":"",
    "full_address":"202 E PALOMAR ST, CHULA VISTA, CA 91911",
    "formatted_address":"202 E PALOMAR ST CHULA VISTA, CA 91911, USA",
    "number":"202",
    "street":"E PALOMAR ST",
    "city":"CHULA VISTA",
    "state":"CA",
    "zip":"91911",
    "longitude":-117.04638753083528,
    "latitude":32.612881174800464, 
    "spoken_languages": ["English"],
    "banned_ethnic_group":[
       
    ],
    "banned_drivers":[
       
    ],
    "prefered_driver": 1,
    "unsafe_for_female_driver":0,
    "unsafe_for_male_driver":0,
    "bording_time":300,
    "constraints" : ["AMB"]
 },
 {
    "id":81,
    "c":"AMB",
    "sdp":"SDP005161",
    "times":"09:00:00",
    "days":"M-T-W-TH-F",
    "name":"BECERRA, VIRGINIA",
    "site":"CV",
    "destination":"880 3RD AVENUE, CHULA VISTA, CA, 91911",
    "other":"",
    "full_address":"420 SOUTH VISTA AVE, #12, SAN YSIDRO, CA 92173",
    "formatted_address":"420 SOUTH VISTA AVE SAN YSIDRO, CA 92173, USA",
    "number":"420",
    "street":"S VISTA AVE",
    "city":"SAN YSIDRO",
    "state":"CA",
    "zip":"92173",
    "longitude":-117.0548305443979,
    "latitude":32.56133077223491, 
    "spoken_languages": ["English"],
    "banned_ethnic_group":[
       
    ],
    "banned_drivers":[
       
    ],
    "prefered_driver": 1,
    "unsafe_for_female_driver":0,
    "unsafe_for_male_driver":0,
    "bording_time":300,
    "constraints" : ["AMB"]
 },
 {
    "id":82,
    "c":"AMB",
    "sdp":"SDP000327",
    "times":"09:00:00",
    "days":"M-T-W-TH-F",
    "name":"DUARTE, JOSE",
    "site":"CV",
    "destination":"880 3RD AVENUE, CHULA VISTA, CA, 91911",
    "other":"",
    "full_address":"708 H ST, SPACE 30, CHULA VISTA, CA 91910",
    "formatted_address":"708 H ST CHULA VISTA, CA 91910, USA",
    "number":"708",
    "street":"H ST",
    "city":"CHULA VISTA",
    "state":"CA",
    "zip":"91910",
    "longitude":-117.09406768672491,
    "latitude":32.628681365202084, 
    "spoken_languages": ["English"],
    "banned_ethnic_group":[
       
    ],
    "banned_drivers":[
       
    ],
    "prefered_driver": 1,
    "unsafe_for_female_driver":0,
    "unsafe_for_male_driver":0,
    "bording_time":300,
    "constraints" : ["AMB"]
 },
 {
    "id":83,
    "c":"AMB",
    "sdp":"SDP007157",
    "times":"09:00:00",
    "days":"M-T-W-TH-F",
    "name":"DIAZ DE RUIZ, MARIA",
    "site":"CV",
    "destination":"880 3RD AVENUE, CHULA VISTA, CA, 91911",
    "other":"",
    "full_address":"289 BEECH AVE, #2, CHULA VISTA, CA 91911",
    "formatted_address":"289 BEECH AVE CHULA VISTA, CA 91911, USA",
    "number":"289",
    "street":"BEECH AVE",
    "city":"CHULA VISTA",
    "state":"CA",
    "zip":"91911",
    "longitude":-117.0899908309043,
    "latitude":32.639260680065675, 
    "spoken_languages": ["English"],
    "banned_ethnic_group":[
       
    ],
    "banned_drivers":[
       
    ],
    "prefered_driver": 1,
    "unsafe_for_female_driver":0,
    "unsafe_for_male_driver":0,
    "bording_time":300,
    "constraints" : ["AMB"]
 },
 {
    "id":84,
    "c":"AMB",
    "sdp":"SDP007148",
    "times":"09:00:00",
    "days":"M-T-W-TH-F",
    "name":"RUIZ MORENO, JORGE",
    "site":"CV",
    "destination":"880 3RD AVENUE, CHULA VISTA, CA, 91911",
    "other":"",
    "full_address":"289 BEECH AVE, #2, CHULA VISTA, CA 91911",
    "formatted_address":"289 BEECH AVE CHULA VISTA, CA 91911, USA",
    "number":"289",
    "street":"BEECH AVE",
    "city":"CHULA VISTA",
    "state":"CA",
    "zip":"91911",
    "longitude":-117.0899908309043,
    "latitude":32.639260680065675, 
    "spoken_languages": ["English"],
    "banned_ethnic_group":[
       
    ],
    "banned_drivers":[
       
    ],
    "prefered_driver": 1,
    "unsafe_for_female_driver":0,
    "unsafe_for_male_driver":0,
    "bording_time":300,
    "constraints" : ["AMB"]
 },
 {
    "id":85,
    "c":"AMB",
    "sdp":"SDP000639",
    "times":"08:00:00",
    "days":"M-T-W-TH-F",
    "name":"RIOS, CARLOS B",
    "site":"CV",
    "destination":"880 3RD AVENUE, CHULA VISTA, CA, 91911",
    "other":"",
    "full_address":"3840 43RD ST, SAN DIEGO, CA 92105",
    "formatted_address":"3840 43RD ST SAN DIEGO, CA 92105, USA",
    "number":"3840",
    "street":"43RD ST",
    "city":"SAN DIEGO",
    "state":"CA",
    "zip":"92105",
    "longitude":-117.10242851555866,
    "latitude":32.748783997951875, 
    "spoken_languages": ["English"],
    "banned_ethnic_group":[
       
    ],
    "banned_drivers":[
       
    ],
    "prefered_driver": 1,
    "unsafe_for_female_driver":0,
    "unsafe_for_male_driver":0,
    "bording_time":300,
    "constraints" : ["AMB"]
 },
 {
    "id":86,
    "c":"AMB",
    "sdp":"SDP471635",
    "times":"08:00:00",
    "days":"M-T-W-TH-F",
    "name":"FABELA, JOSE LUIS",
    "site":"CV",
    "destination":"880 3RD AVENUE, CHULA VISTA, CA, 91911",
    "other":"",
    "full_address":"2350 RUSSELL PARKWAY, APT 615, SAN DIEGO, CA 92108",
    "formatted_address":"2350 RUSSELL PARKWAY SAN DIEGO, CA 92108, USA",
    "number":"2350",
    "street":"RUSSELL PARKWAY",
    "city":"SAN DIEGO",
    "state":"CA",
    "zip":"92108",
    "longitude":-117.14848956831572,
    "latitude":32.77594559389008, 
    "spoken_languages": ["English"],
    "banned_ethnic_group":[
       
    ],
    "banned_drivers":[
       
    ],
    "prefered_driver": 1,
    "unsafe_for_female_driver":0,
    "unsafe_for_male_driver":0,
    "bording_time":300,
    "constraints" : ["AMB"]
 },
 {
    "id":87,
    "c":"AMB",
    "sdp":"SDP399867",
    "times":"09:00:00",
    "days":"M-T-W-TH-F",
    "name":"WARREN, GROVER",
    "site":"CV",
    "destination":"880 3RD AVENUE, CHULA VISTA, CA, 91911",
    "other":"",
    "full_address":"6690 MARGARITA RD, SAN DIEGO, CA 92114",
    "formatted_address":"6690 MARGARITA RD SAN DIEGO, CA 92114, USA",
    "number":"6690",
    "street":"MARGARITA RD",
    "city":"SAN DIEGO",
    "state":"CA",
    "zip":"92114",
    "longitude":-117.05330882905162,
    "latitude":32.7029283127189, 
    "spoken_languages": ["English"],
    "banned_ethnic_group":[
       
    ],
    "banned_drivers":[
       
    ],
    "prefered_driver": 1,
    "unsafe_for_female_driver":0,
    "unsafe_for_male_driver":0,
    "bording_time":300,
    "constraints" : ["AMB"]
 },
 {
    "id":88,
    "c":"AMB",
    "sdp":"SDP000746",
    "times":"09:00:00",
    "days":"M-T-W-TH-F",
    "name":"ZERMENO, RAQUEL",
    "site":"CV",
    "destination":"880 3RD AVENUE, CHULA VISTA, CA, 91911",
    "other":"",
    "full_address":"1423 OLEANDER AVE, CHULA VISTA, CA 91911",
    "formatted_address":"1423 OLEANDER AVE CHULA VISTA, CA 91911, USA",
    "number":"1423",
    "street":"OLEANDER AVE",
    "city":"CHULA VISTA",
    "state":"CA",
    "zip":"91911",
    "longitude":-117.03441633090489,
    "latitude":32.60988199428978, 
    "spoken_languages": ["English"],
    "banned_ethnic_group":[
       
    ],
    "banned_drivers":[
       
    ],
    "prefered_driver": 1,
    "unsafe_for_female_driver":0,
    "unsafe_for_male_driver":0,
    "bording_time":300,
    "constraints" : ["AMB"]
 },
 {
    "id":89,
    "c":"AMB",
    "sdp":"SDP142733",
    "times":"09:15:00",
    "days":"M-T-W-TH-F",
    "name":"FLORES SOSA, MARIA",
    "site":"CV",
    "destination":"880 3RD AVENUE, CHULA VISTA, CA, 91911",
    "other":"",
    "full_address":"1425 2ND AVE, SPC 9, CHULA VISTA, CA 91911",
    "formatted_address":"1425 2ND AVE CHULA VISTA, CA 91911, USA",
    "number":"1425",
    "street":"2ND AVE",
    "city":"CHULA VISTA",
    "state":"CA",
    "zip":"91911",
    "longitude":-117.05899655788949,
    "latitude":32.60267094639863, 
    "spoken_languages": ["English"],
    "banned_ethnic_group":[
       
    ],
    "banned_drivers":[
       
    ],
    "prefered_driver": 1,
    "unsafe_for_female_driver":0,
    "unsafe_for_male_driver":0,
    "bording_time":300,
    "constraints" : ["AMB"]   
 },
 {
    "id":90,
    "c":"AMB",
    "sdp":"SDP317621",
    "times":"09:15:00",
    "days":"M-T-W-TH-F",
    "name":"ROMERO, MARIA DEL CARMEN",
    "site":"CV",
    "destination":"880 3RD AVENUE, CHULA VISTA, CA, 91911",
    "other":"",
    "full_address":"354 ORANGE AVE, CHULA VISTA, CA 91911",
    "formatted_address":"354 ORANGE AVE CHULA VISTA, CA 91911, USA",
    "number":"354",
    "street":"ORANGE AVE",
    "city":"CHULA VISTA",
    "state":"CA",
    "zip":"91911",
    "longitude":-117.06691040392072,
    "latitude":32.60255397641533, 
    "spoken_languages": ["English"],
    "banned_ethnic_group":[
       
    ],
    "banned_drivers":[
       
    ],
    "prefered_driver": 1,
    "unsafe_for_female_driver":0,
    "unsafe_for_male_driver":0,
    "bording_time":300,
    "constraints" : ["AMB"]
 },
 {
    "id":91,
    "c":"AMB",
    "sdp":"SDP361567",
    "times":"09:00:00",
    "days":"M-T-W-TH-F",
    "name":"JABONILLO, FORTUNATA",
    "site":"CV",
    "destination":"880 3RD AVENUE, CHULA VISTA, CA, 91911",
    "other":"",
    "full_address":"1020 BURGA LOOP, CHULA VISTA, CA 91910",
    "formatted_address":"1020 BURGA LOOP CHULA VISTA, CA 91910, USA",
    "number":"1020",
    "street":"BURGA LOOP",
    "city":"CHULA VISTA",
    "state":"CA",
    "zip":"91910",
    "longitude":-117.02294191556045,
    "latitude":32.64879488600373, 
    "spoken_languages": ["English"],
    "banned_ethnic_group":[
       
    ],
    "banned_drivers":[
       
    ],
    "prefered_driver": 1,
    "unsafe_for_female_driver":0,
    "unsafe_for_male_driver":0,
    "bording_time":300,
    "constraints" : ["AMB"]
 },
 {
    "id":92,
    "c":"AMB",
    "sdp":"SDP021509",
    "times":"09:00:00",
    "days":"M-T-W-TH-F",
    "name":"RUELAS, MANUEL",
    "site":"CV",
    "destination":"880 3RD AVENUE, CHULA VISTA, CA, 91911",
    "other":"",
    "full_address":"688 SEA VALE ST, CHULA VISTA, CA 91910",
    "formatted_address":"688 SEA VALE ST CHULA VISTA, CA 91910, USA",
    "number":"688",
    "street":"SEA VALE ST",
    "city":"CHULA VISTA",
    "state":"CA",
    "zip":"91910",
    "longitude":-117.09924090206822,
    "latitude":32.64641302580073, 
    "spoken_languages": ["English"],
    "banned_ethnic_group":[
       
    ],
    "banned_drivers":[
       
    ],
    "prefered_driver": 1,
    "unsafe_for_female_driver":0,
    "unsafe_for_male_driver":0,
    "bording_time":300,
    "constraints" : ["AMB"]
 },
 {
    "id":93,
    "c":"AMB",
    "sdp":"SDP000821",
    "times":"09:15:00",
    "days":"M-T-W-TH-F",
    "name":"CONSUELO, RODRIGUEZ",
    "site":"CV",
    "destination":"880 3RD AVENUE, CHULA VISTA, CA, 91911",
    "other":"",
    "full_address":"1622 ORO VISTA RD, SAN DIEGO, CA 92154",
    "formatted_address":"1622 ORO VISTA RD SAN DIEGO, CA 92154, USA",
    "number":"1622",
    "street":"ORO VISTA RD",
    "city":"SAN DIEGO",
    "state":"CA",
    "zip":"92154",
    "longitude":-117.07864310206985,
    "latitude":32.56627851980897, 
    "spoken_languages": ["English"],
    "banned_ethnic_group":[
       
    ],
    "banned_drivers":[
       
    ],
    "prefered_driver": 1,
    "unsafe_for_female_driver":0,
    "unsafe_for_male_driver":0,
    "bording_time":300,
    "constraints" : ["AMB"]
 },
 {
    "id":94,
    "c":"AMB",
    "sdp":"SDP581829",
    "times":"09:15:00",
    "days":"M-T-W-TH-F",
    "name":"GARCIA, DOLORES",
    "site":"CV",
    "destination":"880 3RD AVENUE, CHULA VISTA, CA, 91911",
    "other":"",
    "full_address":"950 L AVE, NATIONAL CITY, CA 91950",
    "formatted_address":"950 L AVE, NATIONAL CITY, CA 91950, USA",
    "number":"950",
    "street":"L AVE",
    "city":"NATIONAL CITY",
    "state":"CA",
    "zip":"91950",
    "longitude":-117.09447785788792,
    "latitude":32.67820752444844, 
    "spoken_languages": ["English"],
    "banned_ethnic_group":[
       
    ],
    "banned_drivers":[
       
    ],
    "prefered_driver": 1,
    "unsafe_for_female_driver":0,
    "unsafe_for_male_driver":0,
    "bording_time":300,
    "constraints" : ["AMB"]
 },
 {
    "id":95,
    "c":"AMB",
    "sdp":"SDP266388",
    "times":"11:00:00",
    "days":"M-T-W-TH-F",
    "name":"CHAVEZ, MARCELA",
    "site":"SAN YSIDRO PACE",
    "destination":"3364 BEYER BLVD,SUITE 102, SAN YSIDRO, CA, 92173",
    "other":"",
    "full_address":"4729 WIND SURF WAY, APT 335, SAN DIEGO, CA 92154",
    "formatted_address":"4729 WIND SURF WAY SAN DIEGO, CA 92154, USA",
    "number":"4729",
    "street":"WIND SURF WAY",
    "city":"SAN DIEGO",
    "state":"CA",
    "zip":"92154",
    "longitude":-117.03017067323336,
    "latitude":32.58904877388566, 
    "spoken_languages": ["English"],
    "banned_ethnic_group":[
       
    ],
    "banned_drivers":[
       
    ],
    "prefered_driver": 1,
    "unsafe_for_female_driver":0,
    "unsafe_for_male_driver":0,
    "bording_time":300,
    "constraints" : ["AMB"]
 },
 {
    "id":96,
    "c":"AMB",
    "sdp":"SDP266388",
    "times":"11:00:00",
    "days":"M-T-W-TH-F",
    "name":"GARCIA, DOLORES",
    "site":"SAN YSIDRO PACE",
    "destination":"3364 BEYER BLVD,SUITE 102, SAN YSIDRO, CA, 92173",
    "other":"",
    "full_address":"4729 WIND SURF WAY, APT 335, SAN DIEGO, CA 92154",
    "formatted_address":"4729 WIND SURF WAY SAN DIEGO, CA 92154, USA",
    "number":"4729",
    "street":"WIND SURF WAY",
    "city":"SAN DIEGO",
    "state":"CA",
    "zip":"92154",
    "longitude":-117.03017067323336,
    "latitude":32.58904877388566, 
    "spoken_languages": ["English"],
    "banned_ethnic_group":[
       
    ],
    "banned_drivers":[
       
    ],
    "prefered_driver": 1,
    "unsafe_for_female_driver":0,
    "unsafe_for_male_driver":0,
    "bording_time":300,
    "constraints" : ["AMB"]
 },
 {
    "id":97,
    "c":"AMB",
    "sdp":"SDP000624",
    "times":"11:00:00",
    "days":"M-T-W-TH-F",
    "name":"SALAZAR, GRISELDA",
    "site":"SAN YSIDRO PACE",
    "destination":"3364 BEYER BLVD,SUITE 102, SAN YSIDRO, CA, 92173",
    "other":"",
    "full_address":"1151 TESORO GROVE WAY, APT 130, SAN DIEGO, CA 92154",
    "formatted_address":"1151 TESORO GROVE WAY SAN DIEGO, CA 92154, USA",
    "number":"1151",
    "street":"TESORO GROVE WAY",
    "city":"SAN DIEGO",
    "state":"CA",
    "zip":"92154",
    "longitude":-117.08203254439782,
    "latitude":32.57560094202363, 
    "spoken_languages": ["English"],
    "banned_ethnic_group":[
       
    ],
    "banned_drivers":[
       
    ],
    "prefered_driver": 1,
    "unsafe_for_female_driver":0,
    "unsafe_for_male_driver":0,
    "bording_time":300,
    "constraints" : ["AMB"]
 },
 {
    "id":98,
    "c":"AMB",
    "sdp":"SDP040567",
    "times":"11:00:00",
    "days":"M-T-W-TH-F",
    "name":"RODRIGUEZ, MARIA",
    "site":"SAN YSIDRO PACE",
    "destination":"3364 BEYER BLVD,SUITE 102, SAN YSIDRO, CA, 92173",
    "other":"",
    "full_address":"324 WILLOW RD, APT 2H, SAN DIEGO, CA 92173",
    "formatted_address":"324 WILLOW RD SAN DIEGO, CA 92173, USA",
    "number":"324",
    "street":"WILLOW RD",
    "city":"SAN DIEGO",
    "state":"CA",
    "zip":"92173",
    "longitude":-117.04220345789042,
    "latitude":32.54715451447747, 
    "spoken_languages": ["English"],
    "banned_ethnic_group":[
       
    ],
    "banned_drivers":[
       
    ],
    "prefered_driver": 1,
    "unsafe_for_female_driver":0,
    "unsafe_for_male_driver":0,
    "bording_time":300,
    "constraints" : ["AMB"]
 },
 {
    "id":99,
    "c":"AMB",
    "sdp":"SDP388228",
    "times":"09:00:00",
    "days":"M-T-W-TH-F",
    "name":"ZAVALA, TAMARA",
    "site":"CV",
    "destination":"880 3RD AVENUE, CHULA VISTA, CA, 91911",
    "other":"",
    "full_address":"2644 J AVE, NATIONAL CITY, CA 91950",
    "formatted_address":"2644 J AVE, NATIONAL CITY, CA 91950, USA",
    "number":"2644",
    "street":"J AVE",
    "city":"NATIONAL CITY",
    "state":"CA",
    "zip":"91950",
    "longitude": -117.09047040206806,
    "latitude": 32.662538128769654,
    "spoken_languages": ["English"],
    "banned_ethnic_group":[
       
    ],
    "banned_drivers":[
       
    ],
    "prefered_driver": 1,
    "unsafe_for_female_driver":0,
    "unsafe_for_male_driver":0,
    "bording_time":300,
    "constraints" : ["AMB"]
 },
 {
    "id":100,
    "c":"AMB",
    "sdp":"SDP388211",
    "times":"09:00:00",
    "days":"M-T-W-TH-F",
    "name":"FELICIA, LANG",
    "site":"CV",
    "destination":"880 3RD AVENUE, CHULA VISTA, CA, 91911",
    "other":"",
    "full_address":"2644 J AVE, NATIONAL CITY, CA 91950",
    "formatted_address":"2644 J AVE, NATIONAL CITY, CA 91950, USA",
    "number":"2644",
    "street":"J AVE",
    "city":"NATIONAL CITY",
    "state":"CA",
    "zip":"91950",
    "longitude": -117.09047040206806,
    "latitude": 32.662538128769654,
    "spoken_languages": ["English"],
    "banned_ethnic_group":[
       
    ],
    "banned_drivers":[
       
    ],
    "prefered_driver": 1,
    "unsafe_for_female_driver":0,
    "unsafe_for_male_driver":0,
    "bording_time":300,
    "constraints" : ["AMB"]
 },
 {
    "id":101,
    "c":"AMB",
    "sdp":"SDP000467",
    "times":"11:00:00",
    "days":"M-T-W-TH-F",
    "name":"GONZALEZ MEDINA, ANGEL",
    "site":"CV",
    "destination":"880 3RD AVENUE, CHULA VISTA, CA, 91911",
    "other":"",
    "full_address":"1135 25TH ST, APT 101, SAN DIEGO, CA 92154",
    "formatted_address":"1135 25TH ST SAN DIEGO, CA 92154, USA",
    "number":"1135",
    "street":"25TH ST",
    "city":"SAN DIEGO",
    "state":"CA",
    "zip":"92154",
    "longitude":-117.07871543090555,
    "latitude": 32.576563199070236, 
    "spoken_languages": ["English"],
    "banned_ethnic_group":[
       
    ],
    "banned_drivers":[
       
    ],
    "prefered_driver": 1,
    "unsafe_for_female_driver":0,
    "unsafe_for_male_driver":0,
    "bording_time":300,
    "constraints" : ["AMB"]
 },
 {
    "id":102,
    "c":"AMB",
    "sdp":"SDP005382",
    "times":"11:00:00",
    "days":"M-T-W-TH-F",
    "name":"CRUZ, CONNIE",
    "site":"CV",
    "destination":"880 3RD AVENUE, CHULA VISTA, CA, 91911",
    "other":"",
    "full_address":"236 KENNEDY ST, APT 9, CHULA VISTA, CA 91911",
    "formatted_address":"236 KENNEDY ST CHULA VISTA, CA 91911, USA",
    "number":"236",
    "street":"KENNEDY ST",
    "city":"CHULA VISTA",
    "state":"CA",
    "zip":"91911",
    "longitude":-117.06468621556104,
    "latitude": 32.610023169099705, 
    "spoken_languages": ["English"],
    "banned_ethnic_group":[
       
    ],
    "banned_drivers":[
       
    ],
    "prefered_driver": 1,
    "unsafe_for_female_driver":0,
    "unsafe_for_male_driver":0,
    "bording_time":300,
    "constraints" : ["AMB"]
 },
 {
    "id":103,
    "c":"AMB",
    "sdp":"SDP000781",
    "times":"11:00:00",
    "days":"M-T-W-TH-F",
    "name":"BRAVO, JOSEFINA",
    "site":"CV",
    "destination":"880 3RD AVENUE, CHULA VISTA, CA, 91911",
    "other":"",
    "full_address":"1112 CORTE PRIMAVERA, CHULA VISTA, CA 91910",
    "formatted_address":"1112 CORTE PRIMAVERA CHULA VISTA, CA 91910, USA",
    "number":"1112",
    "street":"CORTE PRIMAVERA",
    "city":"CHULA VISTA",
    "state":"CA",
    "zip":"91910",
    "longitude":  -117.0103609885765,
    "latitude": 32.62722071167947, 
    "spoken_languages": ["English"],
    "banned_ethnic_group":[
       
    ],
    "banned_drivers":[
       
    ],
    "prefered_driver": 1,
    "unsafe_for_female_driver":0,
    "unsafe_for_male_driver":0,
    "bording_time":300,
    "constraints" : ["AMB"]
 },
 {
    "id":104,
    "c":"AMB",
    "sdp":"SDP361807",
    "times":"11:00:00",
    "days":"M-T-W-TH-F",
    "name":"CARLON, CARMEN",
    "site":"CV",
    "destination":"880 3RD AVENUE, CHULA VISTA, CA, 91911",
    "other":"",
    "full_address":"843 13TH ST, UNIT B, IMPERIAL BEACH, CA 91932",
    "formatted_address":"843 13TH ST IMPERIAL BEACH, CA 91932, USA",
    "number":"843",
    "street":"13TH ST",
    "city":"IMPERIAL BEACH",
    "state":"CA",
    "zip":"91932",
    "longitude": -117.1052743290538,
    "latitude": 32.58170074831128, 
    "spoken_languages": ["English"],
    "banned_ethnic_group":[
       
    ],
    "banned_drivers":[
       
    ],
    "prefered_driver": 1,
    "unsafe_for_female_driver":0,
    "unsafe_for_male_driver":0,
    "bording_time":300,
    "constraints" : ["AMB"]
 },
 {
    "id":105,
    "c":"AMB",
    "sdp":"SDP000161",
    "times":"09:00:00",
    "days":"M-T-W-TH-F",
    "name":"WILLIAMSON, MALINDA",
    "site":"CV",
    "destination":"880 3RD AVENUE, CHULA VISTA, CA, 91911",
    "other":"",
    "full_address":"4333 COLLEGE AVE, SAN DIEGO, CA 92115",
    "formatted_address":"4333 COLLEGE AVE SAN DIEGO, CA 92115, USA",
    "number":"4333",
    "street":"COLLEGE AVE",
    "city":"SAN DIEGO",
    "state":"CA",
    "zip":"92115",
    "longitude": -117.06543464439439,
    "latitude": 32.75647038546278, 
    "spoken_languages": ["English"],
    "banned_ethnic_group":[
       
    ],
    "banned_drivers":[
       
    ],
    "prefered_driver": 1,
    "unsafe_for_female_driver":0,
    "unsafe_for_male_driver":0,
    "bording_time":300,
    "constraints" : ["AMB"]
 },
 {
    "id":106,
    "c":"AMB",
    "sdp":"SDP348721",
    "times":"09:00:00",
    "days":"M-T-W-TH-F",
    "name":"PONCE, BEATRIZ",
    "site":"CV",
    "destination":"880 3RD AVENUE, CHULA VISTA, CA, 91911",
    "other":"",
    "full_address":"3265 MARTIN AVE, APT C, SAN DIEGO, CA 92113",
    "formatted_address":"3265 MARTIN AVE SAN DIEGO, CA 92113, USA",
    "number":"3265",
    "street":"MARTIN AVE",
    "city":"SAN DIEGO",
    "state":"CA",
    "zip":"92113",
    "longitude": -117.12377854439548,
    "latitude": 32.69937072247071, 
    "spoken_languages": ["English"],
    "banned_ethnic_group":[
       
    ],
    "banned_drivers":[
       
    ],
    "prefered_driver": 1,
    "unsafe_for_female_driver":0,
    "unsafe_for_male_driver":0,
    "bording_time":300,
    "constraints" : ["AMB"]
 },
 {
    "id":107,
    "c":"AMB",
    "sdp":"SDP410854",
    "times":"09:00:00",
    "days":"M-T-W-TH-F",
    "name":"HERNANDEZ-MANJA, CLARISA",
    "site":"CV",
    "destination":"880 3RD AVENUE, CHULA VISTA, CA, 91911",
    "other":"",
    "full_address":"801 S 39TH ST, SAN DIEGO, CA 92113",
    "formatted_address":"801 S 39TH ST SAN DIEGO, CA 92113, USA",
    "number":"801",
    "street":"S 39TH ST",
    "city":"SAN DIEGO",
    "state":"CA",
    "zip":"92113",
    "longitude":-117.11020430206726,
    "latitude": 32.69808962544725, 
    "spoken_languages": ["English"],
    "banned_ethnic_group":[
       
    ],
    "banned_drivers":[
       
    ],
    "prefered_driver": 1,
    "unsafe_for_female_driver":0,
    "unsafe_for_male_driver":0,
    "bording_time":300,
    "constraints" : ["AMB"]
 },
 {
    "id":108,
    "c":"AMB",
    "sdp":"SDP258779",
    "times":"09:00:00",
    "days":"M-T-W-TH-F",
    "name":"OCHOA, CARMEN",
    "site":"CV",
    "destination":"880 3RD AVENUE, CHULA VISTA, CA, 91911",
    "other":"",
    "full_address":"915 S 39TH ST, SAN DIEGO, CA 92113",
    "formatted_address":"915 S 39TH ST, SAN DIEGO, CA 92113, USA",
    "number":"915",
    "street":"S 39TH ST",
    "city":"SAN DIEGO",
    "state":"CA",
    "zip":"92113",
    "longitude": -117.11019927601862,
    "latitude": 32.69697877597225, 
    "spoken_languages": ["English"],
    "banned_ethnic_group":[
       
    ],
    "banned_drivers":[
       
    ],
    "prefered_driver": 1,
    "unsafe_for_female_driver":0,
    "unsafe_for_male_driver":0,
    "bording_time":300,
    "constraints" : ["AMB"]
 },
 {
    "id":109,
    "c":"AMB",
    "sdp":"SDP001083",
    "times":"09:00:00",
    "days":"M-T-W-TH-F",
    "name":"OJEDA, DIONISA",
    "site":"CV",
    "destination":"880 3RD AVENUE, CHULA VISTA, CA, 91911",
    "other":"",
    "full_address":"269 QUINTARD ST, CHULA VISTA, CA 91911",
    "formatted_address":"269 QUINTARD ST CHULA VISTA, CA 91911 , USA",
    "number":"269",
    "street":"QUINTARD ST",
    "city":"CHULA VISTA",
    "state":"CA",
    "zip":"91911",
    "longitude": -117.06351765788945,
    "latitude": 32.60370179703839, 
    "spoken_languages": ["English"],
    "banned_ethnic_group":[
       
    ],
    "banned_drivers":[
       
    ],
    "prefered_driver": 1,
    "unsafe_for_female_driver":0,
    "unsafe_for_male_driver":0,
    "bording_time":300,
    "constraints" : ["AMB"]
 },
 {
    "id":110,
    "c":"AMB",
    "sdp":"SDP510796",
    "times":"09:00:00",
    "days":"M-T-W-TH-F",
    "name":"FELIX, RITA",
    "site":"CV",
    "destination":"880 3RD AVENUE, CHULA VISTA, CA, 91911",
    "other":"",
    "full_address":"1038 JEFFERSON AVE, CHULA VISTA, CA 91911",
    "formatted_address":"1038 JEFFERSON AVE CHULA VISTA, CA 91911, USA",
    "number":"1038",
    "street":"JEFFERSON AVE",
    "city":"CHULA VISTA",
    "state":"CA",
    "zip":"91911",
    "longitude": -117.08449288857682,
    "latitude": 32.61218323780011, 
    "spoken_languages": ["English"],
    "banned_ethnic_group":[
       
    ],
    "banned_drivers":[
       
    ],
    "prefered_driver": 1,
    "unsafe_for_female_driver":0,
    "unsafe_for_male_driver":0,
    "bording_time":300,
    "constraints" : ["AMB"]
 },
 {
    "id":111,
    "c":"AMB",
    "sdp":"SDP421126",
    "times":"09:00:00",
    "days":"M-T-W-TH-F",
    "name":"VILLA, MARTHA",
    "site":"CV",
    "destination":"880 3RD AVENUE, CHULA VISTA, CA, 91911",
    "other":"",
    "full_address":"131 E QUEEN ANN DR, CHULA VISTA, CA 91911",
    "formatted_address":"131 E QUEEN ANN DR, CHULA VISTA, CA 91911, USA",
    "number":"131",
    "street":"E QUEEN ANN DR",
    "city":"CHULA VISTA",
    "state":"CA",
    "zip":"91911",
    "longitude": -117.04999837323298,
    "latitude": 32.61654731838827, 
    "spoken_languages": ["English"],
    "banned_ethnic_group":[
       
    ],
    "banned_drivers":[
       
    ],
    "prefered_driver": 1,
    "unsafe_for_female_driver":0,
    "unsafe_for_male_driver":0,
    "bording_time":300,
    "constraints" : ["AMB"]
 },
 {
    "id":112,
    "c":"AMB",
    "sdp":"SDP437234",
    "times":"09:00:00",
    "days":"M-T-W-TH-F",
    "name":"ENRIQUEZ DE GUERRERO, MARIA",
    "site":"CV",
    "destination":"880 3RD AVENUE, CHULA VISTA, CA, 91911",
    "other":"",
    "full_address":"891 W SAN YSIDRO BLVD, SAN YSIDRO, CA 92173",
    "formatted_address":"891 W SAN YSIDRO BLVD, SAN YSIDRO, CA 92173, USA",
    "number":"891",
    "street":"W SAN YSIDRO BLVD",
    "city":"SAN YSIDRO",
    "state":"CA",
    "zip":"92173",
    "longitude": -117.0615269443213,
    "latitude": 32.560042302707075, 
    "spoken_languages": ["English"],
    "banned_ethnic_group":[
       
    ],
    "banned_drivers":[
       
    ],
    "prefered_driver": 1,
    "unsafe_for_female_driver":0,
    "unsafe_for_male_driver":0,
    "bording_time":300,
    "constraints" : ["AMB"]
 },
 {
    "id":113,
    "c":"AMB",
    "sdp":"SDP000731",
    "times":"11:00:00",
    "days":"M-T-W-TH-F",
    "name":"VARGAS, MARIA",
    "site":"CV",
    "destination":"880 3RD AVENUE, CHULA VISTA, CA, 91911",
    "other":"",
    "full_address":"714 TWIN OAKS AVE, CHULA VISTA, CA 91910",
    "formatted_address":"714 TWIN OAKS AVE, CHULA VISTA, CA 91910, USA",
    "number":"714",
    "street":"TWIN OAKS AVE",
    "city":"CHULA VISTA",
    "state":"CA",
    "zip":"91910",
    "longitude": -117.07152063082532,
    "latitude": 32.62798148114611, 
    "spoken_languages": ["English"],
    "banned_ethnic_group":[
       
    ],
    "banned_drivers":[
       
    ],
    "prefered_driver": 1,
    "unsafe_for_female_driver":0,
    "unsafe_for_male_driver":0,
    "bording_time":300,
    "constraints" : ["AMB"]
 },
 {
    "id":114,
    "c":"AMB",
    "sdp":"SDP488828",
    "times":"11:00:00",
    "days":"M-T-W-TH-F",
    "name":"PEREZ, MARIA R",
    "site":"CV",
    "destination":"880 3RD AVENUE, CHULA VISTA, CA, 91911",
    "other":"",
    "full_address":"1340 COOLIDGE AVE, NATIONAL CITY, CA 91950",
    "formatted_address":"1340 COOLIDGE AVE, NATIONAL CITY, CA 91950, USA",
    "number":"1340",
    "street":"COOLIDGE AVE",
    "city":"NATIONAL CITY",
    "state":"CA",
    "zip":"91950",
    "longitude":-117.1083514461652,
    "latitude": 32.67010130460449, 
    "spoken_languages": ["English"],
    "banned_ethnic_group":[
       
    ],
    "banned_drivers":[
       
    ],
    "prefered_driver": 1,
    "unsafe_for_female_driver":0,
    "unsafe_for_male_driver":0,
    "bording_time":300,
    "constraints" : ["AMB"]
 },
 {
    "id":115,
    "c":"AMB",
    "sdp":"SDP335727",
    "times":"08:00:00",
    "days":"M-T-W-TH-F",
    "name":"HERNANDEZ, CASTO",
    "site":"CV",
    "destination":"880 3RD AVENUE, CHULA VISTA, CA, 91911",
    "other":"",
    "full_address":"2526 REO DR, SAN DIEGO, CA 92139",
    "formatted_address":"2526 REO DR SAN DIEGO, CA 92139, USA",
    "number":"2526",
    "street":"REO DR",
    "city":"SAN DIEGO",
    "state":"CA",
    "zip":"92139",
    "longitude":-117.0630009884948,
    "latitude": 32.67350575895271, 
    "spoken_languages": ["English"],
    "banned_ethnic_group":[
       
    ],
    "banned_drivers":[
       
    ],
    "prefered_driver": 1,
    "unsafe_for_female_driver":0,
    "unsafe_for_male_driver":0,
    "bording_time":300,
    "constraints" : ["AMB"]
 },
 {
    "id":116,
    "c":"AMB",
    "sdp":"SDP009225",
    "times":"09:00:00",
    "days":"M-T-W-TH-F",
    "name":"FLORES, JUANITA",
    "site":"CV",
    "destination":"880 3RD AVENUE, CHULA VISTA, CA, 91911",
    "other":"",
    "full_address":"234 COTTONWOOD RD, #13, SAN YSIDRO, CA 92173",
    "formatted_address":"234 COTTONWOOD RD SAN YSIDRO, CA 92173, USA",
    "number":"234",
    "street":"COTTONWOOD RD",
    "city":"SAN YSIDRO",
    "state":"CA",
    "zip":"92173",
    "longitude": -117.0470147001453,
    "latitude": 32.55624828298821,
    "spoken_languages": ["English"],
    "banned_ethnic_group":[
       
    ],
    "banned_drivers":[
       
    ],
    "prefered_driver": 1,
    "unsafe_for_female_driver":0,
    "unsafe_for_male_driver":0,
    "bording_time":300,
    "constraints" : ["AMB"]
 },
 {
    "id":117,
    "c":"AMB",
    "sdp":"SDP437233",
    "times":"09:00:00",
    "days":"M-T-W-TH-F",
    "name":"GUERRERO, ROSAURO",
    "site":"CV",
    "destination":"880 3RD AVENUE, CHULA VISTA, CA, 91911",
    "other":"",
    "full_address":"891 W SAN YSIDRO BLVD, SAN YSIDRO, CA 92173",
    "formatted_address":"891 W SAN YSIDRO BLVD, SAN YSIDRO, CA 92173, USA",
    "number":"891",
    "street":"W SAN YSIDRO BLVD",
    "city":"SAN YSIDRO",
    "state":"CA",
    "zip":"92173",
    "longitude": -117.0615269443213,
    "latitude": 32.560042302707075, 
    "spoken_languages": ["English"],
    "banned_ethnic_group":[
       
    ],
    "banned_drivers":[
       
    ],
    "prefered_driver": 1,
    "unsafe_for_female_driver":0,
    "unsafe_for_male_driver":0,
    "bording_time":300,
    "constraints" : ["AMB"]
 },
 {
    "id":118,
    "c":"AMB",
    "sdp":"SDP001390",
    "times":"09:00:00",
    "days":"M-T-W-TH-F",
    "name":"MURRILO, HERMINIA",
    "site":"CV",
    "destination":"880 3RD AVENUE, CHULA VISTA, CA, 91911",
    "other":"",
    "full_address":"4224 CAMINO DE LA PLAZA, SAN YSIDRO, CA 92173",
    "formatted_address":"4224 CAMINO DE LA PLAZA SAN YSIDRO, CA 92173, USA",
    "number":"4224",
    "street":"CAMINO DE LA PLAZA",
    "city":"SAN YSIDRO",
    "state":"CA",
    "zip":"92173",
    "longitude":-117.04190271548622,
    "latitude": 32.54650054756199, 
    "spoken_languages": ["English"],
    "banned_ethnic_group":[
       
    ],
    "banned_drivers":[
       
    ],
    "prefered_driver": 1,
    "unsafe_for_female_driver":0,
    "unsafe_for_male_driver":0,
    "bording_time":300,
    "constraints" : ["AMB"]
 },
 {
    "id":119,
    "c":"AMB",
    "sdp":"SDP246598",
    "times":"09:00:00",
    "days":"M-T-W-TH-F",
    "name":"PEREZ CERVANTEZ, MARIA",
    "site":"SAN YSIDRO PACE",
    "destination":"3364 BEYER BLVD,SUITE 102, SAN YSIDRO, CA, 92173",
    "other":"",
    "full_address":"411 MORRISON ST, SAN DIEGO, CA 92102",
    "formatted_address":"411 MORRISON ST SAN DIEGO, CA 92102, USA",
    "number":"411",
    "street":"MORRISON ST",
    "city":"SAN DIEGO",
    "state":"CA",
    "zip":"92102",
    "longitude": -117.10527801548285,
    "latitude": 32.710086074437505, 
    "spoken_languages": ["English"],
    "banned_ethnic_group":[
       
    ],
    "banned_drivers":[
       
    ],
    "prefered_driver": 1,
    "unsafe_for_female_driver":0,
    "unsafe_for_male_driver":0,
    "bording_time":300,
    "constraints" : ["AMB"]
 },
 {
    "id":120,
    "c":"AMB",
    "sdp":"SDP000896",
    "times":"11:00:00",
    "days":"M-T-W-TH-F",
    "name":"CHAVEZ CARDENAS, AUREA",
    "site":"SAN YSIDRO PACE",
    "destination":"3364 BEYER BLVD,SUITE 102, SAN YSIDRO, CA, 92173",
    "other":"",
    "full_address":"4279 POPLAR ST, SAN DIEGO, CA 92105",
    "formatted_address":"4279 POPLAR ST SAN DIEGO, CA 92105, USA",
    "number":"4279",
    "street":"POPLAR ST",
    "city":"SAN DIEGO",
    "state":"CA",
    "zip":"92105",
    "longitude":  -117.10296301732875,
    "latitude": 32.73673964952095,
    "spoken_languages": ["English"],
    "banned_ethnic_group":[
       
    ],
    "banned_drivers":[
       
    ],
    "prefered_driver": 1,
    "unsafe_for_female_driver":0,
    "unsafe_for_male_driver":0,
    "bording_time":300,
    "constraints" : ["AMB"]
 },
 {
    "id":121,
    "c":"AMB",
    "sdp":"SDP056220",
    "times":"11:00:00",
    "days":"M-T-W-TH-F",
    "name":"SANTIAGO CORDOCA, GUILLERMINA",
    "site":"SAN YSIDRO PACE",
    "destination":"3364 BEYER BLVD,SUITE 102, SAN YSIDRO, CA, 92173",
    "other":"",
    "full_address":"364 5TH AVE, APT 203, CHULA VISTA, CA 91911",
    "formatted_address":"364 5TH AVE CHULA VISTA, CA 91911, USA",
    "number":"364",
    "street":"5TH AVE",
    "city":"CHULA VISTA",
    "state":"CA",
    "zip":"91911",
    "longitude":  -117.08743067315481,
    "latitude": 32.63695384235176, 
    "spoken_languages": ["English"],
    "banned_ethnic_group":[
       
    ],
    "banned_drivers":[
       
    ],
    "prefered_driver": 1,
    "unsafe_for_female_driver":0,
    "unsafe_for_male_driver":0,
    "bording_time":300,
    "constraints" : ["AMB"]
 },
 {
    "id":122,
    "c":"AMB",
    "sdp":"SDP015386",
    "times":"11:00:00",
    "days":"M-T-W-TH-F",
    "name":"MARTINEZ, CARLOTA",
    "site":"SAN YSIDRO PACE",
    "destination":"3364 BEYER BLVD,SUITE 102, SAN YSIDRO, CA, 92173",
    "other":"",
    "full_address":"3656 CLAVELITA ST, SAN DIEGO, CA 92154",
    "formatted_address":"3656 CLAVELITA ST SAN DIEGO, CA 92154, USA",
    "number":"3656",
    "street":"CLAVELITA ST",
    "city":"SAN DIEGO",
    "state":"CA",
    "zip":"92154",
    "longitude":  -117.05692304432094,
    "latitude": 32.570001778612344, 
    "spoken_languages": ["English"],
    "banned_ethnic_group":[
       
    ],
    "banned_drivers":[
       
    ],
    "prefered_driver": 1,
    "unsafe_for_female_driver":0,
    "unsafe_for_male_driver":0,
    "bording_time":300,
    "constraints" : ["AMB"]
 },
 {
    "id":123,
    "c":"AMB",
    "sdp":"SDP476442",
    "times":"15:30:00",
    "days":"M-T-W-TH-F",
    "name":"ALBA MADRID, MARIA",
    "site":"FMC BALBOA EASTLAKE",
    "destination":"2391 BOSWELL RD CHULA VISTA CA 91914",
    "other":"",
    "full_address":"1421 FIELDBROOK ST, CHULA VISTA, CA 91913",
    "formatted_address":"1421 FIELDBROOK ST CHULA VISTA, CA 91913, USA",
    "number":"1421",
    "street":"FIELDBROOK ST",
    "city":"CHULA VISTA",
    "state":"CA",
    "zip":"91913",
    "longitude":  -116.99706274431996,
    "latitude": 32.62171845339024,
    "spoken_languages": ["English"],
    "banned_ethnic_group":[
       
    ],
    "banned_drivers":[
       
    ],
    "prefered_driver": 1,
    "unsafe_for_female_driver":0,
    "unsafe_for_male_driver":0,
    "bording_time":300,
    "constraints" : ["AMB"]
 },
 {
    "id":124,
    "c":"AMB",
    "sdp":"SDP547604",
    "times":"16:00:00",
    "days":"M-T-W-TH-F",
    "name":"VONGSAVATH, SAM",
    "site":"FMC BALBOA EASTLAKE",
    "destination":"2391 BOSWELL RD CHULA VISTA CA 91914",
    "other":"",
    "full_address":"1145 CAMINO DEL REY,CHULA VISTA,CA, 91910",
    "formatted_address":"1145 CAMINO DEL REY CHULA VISTA, CA 91910, USA",
    "number":"1145",
    "street":"CAMINO DEL REY",
    "city":"CHULA VISTA",
    "state":"CA",
    "zip":"91910",
    "longitude": -117.01188150199022,
    "latitude": 32.63477608157198,
    "spoken_languages": ["English"],
    "banned_ethnic_group":[
       
    ],
    "banned_drivers":[
       
    ],
    "prefered_driver": 1,
    "unsafe_for_female_driver":0,
    "unsafe_for_male_driver":0,
    "bording_time":300,
    "constraints" : ["AMB"]
 },
 {
    "id":125,
    "c":"AMB",
    "sdp":"SDP542292",
    "times":"16:30:00",
    "days":"M-T-W-TH-F",
    "name":"CORONA, JESUS",
    "site":"FMC MARINA BAY",
    "destination":"630 BAY BLVD SUITE 101 CHULA VISTA 91910",
    "other":"",
    "full_address":"840 3RD AVE, APT 25, CHULA VISTA, CA, 91911",
    "formatted_address":"840 3RD AVE CHULA VISTA,CA, 91911, USA",
    "number":"840",
    "street":"3RD AVE",
    "city":"CHULA VISTA",
    "state":"CA",
    "zip":"91911",
    "longitude":-117.07456453784269,
    "latitude": 32.62239038220717, 
    "spoken_languages": ["English"],
    "banned_ethnic_group":[
       
    ],
    "banned_drivers":[
       
    ],
    "prefered_driver": 1,
    "unsafe_for_female_driver":0,
    "unsafe_for_male_driver":0,
    "bording_time":300,
    "constraints" : ["AMB"]
 },
 {
    "id":126,
    "c":"AMB",
    "sdp":"SDP437233",
    "times":"16:40:00",
    "days":"M-T-W-TH-F",
    "name":"GUERRERO, ROSAURO",
    "site":"DAVITA SAN YSIDRO",
    "destination":"1445 30TH ST SUITE A SAN DIEGO CA 92154",
    "other":"",
    "full_address":"891 W SAN YSIDRO BLVD, APT 7, SAN DIEGO, CA 92173",
    "formatted_address":"891 W SAN YSIDRO BLVD SAN DIEGO, CA 92173, USA",
    "number":"891",
    "street":"W SAN YSIDRO BLVD",
    "city":"SAN DIEGO",
    "state":"CA",
    "zip":"92173",
    "longitude":-117.06190717315633,
    "latitude": 32.56038345933232, 
    "spoken_languages": ["English"],
    "banned_ethnic_group":[
       
    ],
    "banned_drivers":[
       
    ],
    "prefered_driver": 1,
    "unsafe_for_female_driver":0,
    "unsafe_for_male_driver":0,
    "bording_time":300,
    "constraints" : ["AMB"]
 },
 {
    "id":127,
    "c":"AMB",
    "sdp":"SDP001634",
    "times":"08:00:00",
    "days":"M-T-W-TH-F",
    "name":"PACHECO, PRUDENCIO",
    "site":"FMC BALBOA EASTLAKE",
    "destination":"2391 BOSWELL RD CHULA VISTA CA 91914",
    "other":"",
    "full_address":"325 SPRUCE ST, CHULA VISTA, CA, 91911",
    "formatted_address":"325 SPRUCE ST CHULA VISTA, CA 91911, USA",
    "number":"325",
    "street":"SPRUCE ST",
    "city":"CHULA VISTA",
    "state":"CA",
    "zip":"91911",
    "longitude":-117.04136957315532,
    "latitude": 32.61034650591949, 
    "spoken_languages": ["English"],
    "banned_ethnic_group":[
       
    ],
    "banned_drivers":[
       
    ],
    "prefered_driver": 1,
    "unsafe_for_female_driver":0,
    "unsafe_for_male_driver":0,
    "bording_time":300,
    "constraints" : ["AMB"]
 },
 {
    "id":128,
    "c":"AMB",
    "sdp":"SDP476442",
    "times":"08:15:00",
    "days":"M-T-W-TH-F",
    "name":"ALBA MADRID, MARIA",
    "site":"FMC BALBOA EASTLAKE",
    "destination":"2391 BOSWELL RD CHULA VISTA CA 91914",
    "other":"",
    "full_address":"1421 FIELDBROOK ST, CHULA VISTA, CA 91913",
    "formatted_address":"1421 FIELDBROOK ST CHULA VISTA, CA 91913, USA",
    "number":"1421",
    "street":"FIELDBROOK ST",
    "city":"CHULA VISTA",
    "state":"CA",
    "zip":"91913",
    "longitude":  -116.99706274431996,
    "latitude": 32.62171845339024,
    "spoken_languages": ["English"],
    "banned_ethnic_group":[
       
    ],
    "banned_drivers":[
       
    ],
    "prefered_driver": 1,
    "unsafe_for_female_driver":0,
    "unsafe_for_male_driver":0,
    "bording_time":300,
    "constraints" : ["AMB"]
 },
 {
    "id":129,
    "c":"AMB",
    "sdp":"SDP547604",
    "times":"08:30:00",
    "days":"M-T-W-TH-F",
    "name":"VONGSAVATH, SAM",
    "site":"FMC BALBOA EASTLAKE",
    "destination":"2391 BOSWELL RD CHULA VISTA CA 91914",
    "other":"",
    "full_address":"1145 CAMINO DEL REY,CHULA VISTA,CA, 91910",
    "formatted_address":"1145 CAMINO DEL REY CHULA VISTA, CA 91910, USA",
    "number":"1145",
    "street":"CAMINO DEL REY",
    "city":"CHULA VISTA",
    "state":"CA",
    "zip":"91910",
    "longitude": -117.01188150199022,
    "latitude": 32.63477608157198,
    "spoken_languages": ["English"],
    "banned_ethnic_group":[
       
    ],
    "banned_drivers":[
       
    ],
    "prefered_driver": 1,
    "unsafe_for_female_driver":0,
    "unsafe_for_male_driver":0,
    "bording_time":300,
    "constraints" : ["AMB"]
 },
 {
    "id":130,
    "c":"AMB",
    "sdp":"SPD002547",
    "times":"03:45:00",
    "days":"M-T-W-TH-F",
    "name":"RIOS, ALONSO",
    "site":"FMC EAST COUNTY",
    "destination":"570 N 2ND ST, EL CAJON, CA, 92021",
    "other":"",
    "full_address":"346 JAMACHA RD, APT 114, EL CAJON, CA 92019",
    "formatted_address":"346 JAMACHA RD EL CAJON, CA 92019, USA",
    "number":"346",
    "street":"JAMACHA RD",
    "city":"EL CAJON",
    "state":"CA",
    "zip":"92019",
    "longitude": -116.93316177315172,
    "latitude": 32.792059320565606, 
    "spoken_languages": ["English"],
    "banned_ethnic_group":[
       
    ],
    "banned_drivers":[
       
    ],
    "prefered_driver": 1,
    "unsafe_for_female_driver":0,
    "unsafe_for_male_driver":0,
    "bording_time":300,
    "constraints" : ["AMB"]
 },
 {
    "id":131,
    "c":"AMB",
    "sdp":"SPD002938",
    "times":"04:05:00",
    "days":"M-T-W-TH-F",
    "name":"MIMIS, WAYNE",
    "site":"FMC EAST COUNTY",
    "destination":"570 N 2ND ST, EL CAJON, CA, 92021",
    "other":"",
    "full_address":"120 BALLANTYNE ST, APT 7, EL CAJON, CA 92020",
    "formatted_address":"120 BALLANTYNE ST EL CAJON, CA 92020, USA",
    "number":"120",
    "street":"BALLANTYNE ST",
    "city":"EL CAJON",
    "state":"CA",
    "zip":"92020",
    "longitude":  -116.95761754431638,
    "latitude": 32.79572937449464,
    "spoken_languages": ["English"],
    "banned_ethnic_group":[
       
    ],
    "banned_drivers":[
       
    ],
    "prefered_driver": 1,
    "unsafe_for_female_driver":0,
    "unsafe_for_male_driver":0,
    "bording_time":300,
    "constraints" : ["AMB"]
 },
 {
    "id":132,
    "c":"AMB",
    "sdp":"SDP506493",
    "times":"04:05:00",
    "days":"M-T-W-TH-F",
    "name":"ROSALES, BAUDELIO",
    "site":"CARDIOVASCULAR INSTITUTE OF SAN DIEGO",
    "destination":"292 EUCLID AVE, # 210, SAN DIEGO, CA, 92114",
    "other":"",
    "full_address":"6327 MADRONE AVE, SAN DIEGO, CA 92114",
    "formatted_address":"6327 MADRONE AVE SAN DIEGO, CA 92114, USA",
    "number":"6327",
    "street":"MADRONE AVE",
    "city":"SAN DIEGO",
    "state":"CA",
    "zip":"92114",
    "longitude":  -117.06128960198859,
    "latitude": 32.70902253144603,
    "spoken_languages": ["English"],
    "banned_ethnic_group":[
       
    ],
    "banned_drivers":[
       
    ],
    "prefered_driver": 1,
    "unsafe_for_female_driver":0,
    "unsafe_for_male_driver":0,
    "bording_time":300,
    "constraints" : ["AMB"]
 },
 {
    "id":133,
    "c":"AMB",
    "sdp":"SDP045027",
    "times":"05:00:00",
    "days":"M-T-W-TH-F",
    "name":"GROVES, MARIA",
    "site":"DAVITA SAN YSIDRO",
    "destination":"1445 30TH ST SUITE A SAN DIEGO CA 92154",
    "other":"",
    "full_address":"336 MONTGOMERY ST, APT A, CHULA VISTA, CA 91911",
    "formatted_address":"336 MONTGOMERY ST CHULA VISTA, CA 91911, USA",
    "number":"336",
    "street":"MONTGOMERY ST",
    "city":"CHULA VISTA",
    "state":"CA",
    "zip":"91911",
    "longitude":  -117.06582184432041,
    "latitude": 32.59720353509748, 
    "spoken_languages": ["English"],
    "banned_ethnic_group":[
       
    ],
    "banned_drivers":[
       
    ],
    "prefered_driver": 1,
    "unsafe_for_female_driver":0,
    "unsafe_for_male_driver":0,
    "bording_time":300,
    "constraints" : ["AMB"]
 },
 {
    "id":134,
    "c":"AMB",
    "sdp":"SDP518913",
    "times":"05:00:00",
    "days":"M-T-W-TH-F",
    "name":"HARRAWAY, DENNIS",
    "site":"FMC BALBOA EASTLAKE",
    "destination":"2391 BOSWELL RD CHULA VISTA CA 91914",
    "other":"",
    "full_address":"517 W SAN YSIDRO BLVD, UNIT 313, SAN YSIDRO, CA 92173",
    "formatted_address":"517 W SAN YSIDRO BLVD SAN YSIDRO, CA 92173, USA",
    "number":"517",
    "street":"W SAN YSIDRO BLVD",
    "city":"SAN YSIDRO",
    "state":"CA",
    "zip":"92173",
    "longitude":  -117.05514830199158,
    "latitude": 32.557040924195185, 
    "spoken_languages": ["English"],
    "banned_ethnic_group":[
       
    ],
    "banned_drivers":[
       
    ],
    "prefered_driver": 1,
    "unsafe_for_female_driver":0,
    "unsafe_for_male_driver":0,
    "bording_time":300,
    "constraints" : ["AMB"]
 },
 {
    "id":135,
    "c":"AMB",
    "sdp":"SDP000514",
    "times":"03:30:00",
    "days":"M-T-W-TH-F",
    "name":"AWAMBENG, BIBIANA",
    "site":"FMC RANCHO",
    "destination":"11031 VIA FRONTERA, STE C, SAN DIEGO, CA, 92127",
    "other":"",
    "full_address":"12236 MEADOWGRASS CT, SAN DIEGO, CA 92128",
    "formatted_address":"12236 MEADOWGRASS CT SAN DIEGO, CA 92128, USA",
    "number":"12236",
    "street":"MEADOWGRASS CT",
    "city":"SAN DIEGO",
    "state":"CA",
    "zip":"92128",
    "longitude": -117.08112234431339,
    "latitude": 32.94147196341798, 
    "spoken_languages": ["English"],
    "banned_ethnic_group":[
       
    ],
    "banned_drivers":[
       
    ],
    "prefered_driver": 1,
    "unsafe_for_female_driver":0,
    "unsafe_for_male_driver":0,
    "bording_time":300,
    "constraints" : ["AMB"]
 },
 {
    "id":136,
    "c":"AMB",
    "sdp":"SDP001192",
    "times":"04:30:00",
    "days":"M-T-W-TH-F",
    "name":"BONILLA, EVERARDO",
    "site":"DAVITA SAN MARCOS",
    "destination":"2135 MONTIEL RD, SAN MARCOS, CA, 92069",
    "other":"",
    "full_address":"260 N MIDWAY DR, APT A21, ESCONDIDO, CA 92027",
    "formatted_address":"260 N MIDWAY DR ESCONDIDO, CA 92027, USA",
    "number":"260",
    "street":"N MIDWAY DR",
    "city":"ESCONDIDO",
    "state":"CA",
    "zip":"92027",
    "longitude":  -117.04980380197979,
    "latitude": 33.13529604782048,
    "spoken_languages": ["English"],
    "banned_ethnic_group":[
       
    ],
    "banned_drivers":[
       
    ],
    "prefered_driver": 1,
    "unsafe_for_female_driver":0,
    "unsafe_for_male_driver":0,
    "bording_time":300,
    "constraints" : ["AMB"]
 },
 {
    "id":137,
    "c":"AMB",
    "sdp":"SDP000514",
    "times":"08:00:00",
    "days":"M-T-W-TH-F",
    "name":"AWAMBENG, BIBIANA",
    "site":"DAVITA SAN MARCOS",
    "destination":"2135 MONTIEL RD, SAN MARCOS, CA, 92069",
    "other":"",
    "full_address":"12236 MEADOWGRASS CT, SAN DIEGO, CA 92128",
    "formatted_address":"12236 MEADOWGRASS CT SAN DIEGO, CA 92128, USA",
    "number":"12236",
    "street":"MEADOWGRASS CT",
    "city":"SAN DIEGO",
    "state":"CA",
    "zip":"92128",
    "longitude": -117.08112234431339,
    "latitude": 32.94147196341798, 
    "spoken_languages": ["English"],
    "banned_ethnic_group":[
       
    ],
    "banned_drivers":[
       
    ],
    "prefered_driver": 1,
    "unsafe_for_female_driver":0,
    "unsafe_for_male_driver":0,
    "bording_time":300,
    "constraints" : ["AMB"]
 },
 {
    "id":138,
    "c":"AMB",
    "sdp":"SDP001192",
    "times":"09:30:00",
    "days":"M-T-W-TH-F",
    "name":"BONILLA, EVERARDO",
    "site":"DAVITA SAN MARCOS",
    "destination":"2135 MONTIEL RD, SAN MARCOS, CA, 92069",
    "other":"",
    "full_address":"260 N MIDWAY DR, APT A21, ESCONDIDO, CA 92027",
    "formatted_address":"260 N MIDWAY DR ESCONDIDO, CA 92027, USA",
    "number":"260",
    "street":"N MIDWAY DR",
    "city":"ESCONDIDO",
    "state":"CA",
    "zip":"92027",
    "longitude":  -117.04980380197979,
    "latitude": 33.13529604782048,
    "spoken_languages": ["English"],
    "banned_ethnic_group":[
       
    ],
    "banned_drivers":[
       
    ],
    "prefered_driver": 1,
    "unsafe_for_female_driver":0,
    "unsafe_for_male_driver":0,
    "bording_time":300,
    "constraints" : ["AMB"]
 },
 {
    "id":139,
    "c":"AMB",
    "sdp":"SDP001415",
    "times":"09:00:00",
    "days":"M-T-W-TH-F",
    "name":"MACIAS, GILBERTO",
    "site":"FMC BALBOA EASTLAKE",
    "destination":"2391 BOSWELL RD CHULA VISTA CA 91914",
    "other":"",
    "full_address":"27860 HWY 94, POTRERO, CA 91963",
    "formatted_address":"27860 HWY 94, POTRERO, CA 91963, USA",
    "number":"27860",
    "street":"HWY 94",
    "city":"POTRERO",
    "state":"CA",
    "zip":"91963",
    "longitude":  -117.01026779645989,
    "latitude": 32.755819182953395, 
    "spoken_languages": ["English"],
    "banned_ethnic_group":[
       
    ],
    "banned_drivers":[
       
    ],
    "prefered_driver": 1,
    "unsafe_for_female_driver":0,
    "unsafe_for_male_driver":0,
    "bording_time":300,
    "constraints" : ["AMB"]
 },
 {
    "id":140,
    "c":"AMB",
    "sdp":"SDP379619",
    "times":"07:00:00",
    "days":"M-T-W-TH-F",
    "name":"GARCIA, PERTER",
    "site":"FMC NATIONAL CITY",
    "destination":"303 W 26TH ST, NATIONAL CITY, CA 91950",
    "other":"",
    "full_address":"4995 LOGAN AVE, APT 17, SAN DIEGO, CA 92113",
    "formatted_address":"4995 LOGAN AVE SAN DIEGO, CA 92113, USA",
    "number":"4995",
    "street":"LOGAN AVE",
    "city":"SAN DIEGO",
    "state":"CA",
    "zip":"92113",
    "longitude": -117.08776677315362,
    "latitude": 32.69650258558608, 
    "spoken_languages": ["English"],
    "banned_ethnic_group":[
       
    ],
    "banned_drivers":[
       
    ],
    "prefered_driver": 1,
    "unsafe_for_female_driver":0,
    "unsafe_for_male_driver":0,
    "bording_time":300,
    "constraints" : ["AMB"]
 },
 {
    "id":141,
    "c":"AMB",
    "sdp":"SDP001415",
    "times":"14:00:00",
    "days":"M-T-W-TH-F",
    "name":"MACIAS, GILBERTO",
    "site":"FMC BALBOA EASTLAKE",
    "destination":"2391 BOSWELL RD CHULA VISTA CA 91914",
    "other":"",
    "full_address":"27860 HWY 94, POTRERO, CA 91963",
    "formatted_address":"27860 HWY 94, POTRERO, CA 91963, USA",
    "number":"27860",
    "street":"HWY 94",
    "city":"POTRERO",
    "state":"CA",
    "zip":"91963",
    "longitude":  -117.01026779645989,
    "latitude": 32.755819182953395, 
    "spoken_languages": ["English"],
    "banned_ethnic_group":[
       
    ],
    "banned_drivers":[
       
    ],
    "prefered_driver": 1,
    "unsafe_for_female_driver":0,
    "unsafe_for_male_driver":0,
    "bording_time":300,
    "constraints" : ["AMB"]
 },
 {
    "id":158,
    "c":"AMB",
    "sdp":"SDP017712",
    "times":"03:30:00",
    "days":"M-T-W-TH-F",
    "name":"MURGIA, JOSE",
    "site":"FMC BALBOA EASTLAKE",
    "destination":"2391 BOSWELL RD CHULA VISTA CA 91914",
    "other":"",
    "full_address":"3537 VALLEY RD, APT 1, BONITA, CA 91902",
    "formatted_address":"3537 VALLEY RD BONITA, CA 91902, USA",
    "number":"3537",
    "street":"VALLEY RD",
    "city":"BONITA",
    "state":"CA",
    "zip":"91902",
    "longitude":   -117.05238875965983,
    "latitude": 32.66464698134084,
    "spoken_languages": ["English"],
    "banned_ethnic_group":[
       
    ],
    "banned_drivers":[
       
    ],
    "prefered_driver": 1,
    "unsafe_for_female_driver":0,
    "unsafe_for_male_driver":0,
    "bording_time":300,
    "constraints" : ["AMB"]
 },
 {
    "id":142,
    "c":"AMB",
    "sdp":"SDP433131",
    "times":"04:30:00",
    "days":"M-T-W-TH-F",
    "name":"RICHARD, DUWE",
    "site":"FMC MARINA BAY",
    "destination":"630 BAY BLVD SUITE 101 CHULA VISTA 91910",
    "other":"",
    "full_address":"255 SAN MIGUEL DR, CHULA VISTA, CA 91911",
    "formatted_address":"255 SAN MIGUEL DR CHULA VISTA, CA 91911, USA",
    "number":"255",
    "street":"SAN MIGUEL DR",
    "city":"CHULA VISTA",
    "state":"CA",
    "zip":"91911",
    "longitude":-117.07080964431984,
    "latitude": 32.62309547760624, 
    "spoken_languages": ["English"],
    "banned_ethnic_group":[
       
    ],
    "banned_drivers":[
       
    ],
    "prefered_driver": 1,
    "unsafe_for_female_driver":0,
    "unsafe_for_male_driver":0,
    "bording_time":300,
    "constraints" : ["AMB"]
 },
 {
    "id":143,
    "c":"AMB",
    "sdp":"SDP088335",
    "times":"04:50:00",
    "days":"M-T-W-TH-F",
    "name":"OSUNA, CONCEPCION",
    "site":"FMC MARINA BAY",
    "destination":"630 BAY BLVD SUITE 101 CHULA VISTA 91910",
    "other":"",
    "full_address":"929 9TH AVE, APT 824, SAN DIEGO, CA 92101",
    "formatted_address":"929 9TH AVE SAN DIEGO, CA 92101, USA",
    "number":"929",
    "street":"9TH AVE",
    "city":"SAN DIEGO",
    "state":"CA",
    "zip":"92101",
    "longitude": -117.15637950198837,
    "latitude": 32.715453018429415, 
    "spoken_languages": ["English"],
    "banned_ethnic_group":[
       
    ],
    "banned_drivers":[
       
    ],
    "prefered_driver": 1,
    "unsafe_for_female_driver":0,
    "unsafe_for_male_driver":0,
    "bording_time":300,
    "constraints" : ["AMB"]
 },
 {
    "id":159,
    "c":"AMB",
    "sdp":"SDP611353",
    "times":"06:35:00",
    "days":"M-T-W-TH-F",
    "name":"DE LA CRUZ, SIMON",
    "site":"FMC NATIONAL CITY",
    "destination":"303 W 26TH ST, NATIONAL CITY, CA 91950",
    "other":"",
    "full_address":"221 1/2 S 28TH ST, SAN DIEGO, CA 92113",
    "formatted_address":"221 S 28TH ST SAN DIEGO, CA 92113, USA",
    "number":"221",
    "street":"S 28TH ST",
    "city":"SAN DIEGO",
    "state":"CA",
    "zip":"92113",
    "longitude":  -117.13367831548302,
    "latitude": 32.70403729761912,
    "spoken_languages": ["English"],
    "banned_ethnic_group":[
       
    ],
    "banned_drivers":[
       
    ],
    "prefered_driver": 1,
    "unsafe_for_female_driver":0,
    "unsafe_for_male_driver":0,
    "bording_time":300,
    "constraints" : ["AMB"]
 },
 {
    "id":144,
    "c":"AMB",
    "sdp":"SDP017712",
    "times":"08:15:00",
    "days":"M-T-W-TH-F",
    "name":"MURGIA, JOSE",
    "site":"FMC BALBOA EASTLAKE",
    "destination":"2391 BOSWELL RD CHULA VISTA CA 91914",
    "other":"",
    "full_address":"3537 VALLEY RD, APT 1, BONITA, CA 91902",
    "formatted_address":"3537 VALLEY RD BONITA, CA 91902, USA",
    "number":"3537",
    "street":"VALLEY RD",
    "city":"BONITA",
    "state":"CA",
    "zip":"91902",
    "longitude":   -117.05238875965983,
    "latitude": 32.66464698134084,
    "spoken_languages": ["English"],
    "banned_ethnic_group":[
       
    ],
    "banned_drivers":[
       
    ],
    "prefered_driver": 1,
    "unsafe_for_female_driver":0,
    "unsafe_for_male_driver":0,
    "bording_time":300,
    "constraints" : ["AMB"]
 },
 {
    "id":146,
    "c":"AMB",
    "sdp":"SDP000152",
    "times":"03:15:00",
    "days":"M-T-W-TH-F",
    "name":"PEREZ VASQUEZ, MARIA",
    "site":"FMC COLLEGE",
    "destination":"5961 UNIVERSITY AVENUE, SUITE 317, SAN DIEGO, CA, 92115",
    "other":"",
    "full_address":"303 47TH ST, SPC G20, SAN DIEGO, CA, 92102",
    "formatted_address":"303 47TH ST SAN DIEGO, CA 92102, USA",
    "number":"303",
    "street":"47TH ST",
    "city":"SAN DIEGO",
    "state":"CA",
    "zip":"92102",
    "longitude": -117.0912842442607,
    "latitude": 32.70833616053482, 
    "spoken_languages": ["English"],
    "banned_ethnic_group":[
       
    ],
    "banned_drivers":[
       
    ],
    "prefered_driver": 1,
    "unsafe_for_female_driver":0,
    "unsafe_for_male_driver":0,
    "bording_time":300,
    "constraints" : ["AMB"]
 },
 {
    "id":160,
    "c":"AMB",
    "sdp":"SDP003255",
    "times":"04:15:00",
    "days":"M-T-W-TH-F",
    "name":"GONZALEZ, RAFAEL",
    "site":"FMC GATEWAY EAST",
    "destination":"720 GATEWAY CENTER DR, STE B, SAN DIEGO, CA, 92102",
    "other":"",
    "full_address":"3549 VAN DYKE AVE, SAN DIEGO, CA 92105",
    "formatted_address":"3549 VAN DYKE AVE, SAN DIEGO, CA 92105, USA",
    "number":"3549",
    "street":"VAN DYKE AVE",
    "city":"SAN DIEGO",
    "state":"CA",
    "zip":"92105",
    "longitude": -117.10301200193089,
    "latitude": 32.743373234160934,
    "spoken_languages": ["English"],
    "banned_ethnic_group":[
       
    ],
    "banned_drivers":[
       
    ],
    "prefered_driver": 1,
    "unsafe_for_female_driver":0,
    "unsafe_for_male_driver":0,
    "bording_time":300,
    "constraints" : ["AMB"]
 },
 {
    "id":147,
    "c":"AMB",
    "sdp":"SDP003484",
    "times":"04:30:00",
    "days":"M-T-W-TH-F",
    "name":"PASTOR, JUANA",
    "site":"FMC GATEWAY EAST",
    "destination":"720 GATEWAY CENTER DR, STE B, SAN DIEGO, CA, 92102",
    "other":"",
    "full_address":"4360 DELTA ST, APT 406, SAN DIEGO, CA 92113",
    "formatted_address":"4360 DELTA ST SAN DIEGO, CA 92113, USA",
    "number":"4360",
    "street":"DELTA ST",
    "city":"SAN DIEGO",
    "state":"CA",
    "zip":"92113",
    "longitude": -117.1013451442611,
    "latitude": 32.68933447137796, 
    "spoken_languages": ["English"],
    "banned_ethnic_group":[
       
    ],
    "banned_drivers":[
       
    ],
    "prefered_driver": 1,
    "unsafe_for_female_driver":0,
    "unsafe_for_male_driver":0,
    "bording_time":300,
    "constraints" : ["AMB"]
 },
 {
    "id":148,
    "c":"AMB",
    "sdp":"SDP002514",
    "times":"05:00:00",
    "days":"M-T-W-TH-F",
    "name":"CANLAS, MERLITA",
    "site":"FMC SAN YSIDRO",
    "destination":"3010 DEL SOL BLVD, SAN DIEGO, CA, 92154",
    "other":"",
    "full_address":"3340 DEL SOL BLVD, SPC 234, SAN DIEGO, CA 92154",
    "formatted_address":"3340 DEL SOL BLVD SAN DIEGO, CA 92154, USA",
    "number":"3340",
    "street":"DEL SOL BLVD",
    "city":"SAN DIEGO",
    "state":"CA",
    "zip":"92154",
    "longitude": -117.06159747309884,
    "latitude": 32.57545264242654, 
    "spoken_languages": ["English"],
    "banned_ethnic_group":[
       
    ],
    "banned_drivers":[
       
    ],
    "prefered_driver": 1,
    "unsafe_for_female_driver":0,
    "unsafe_for_male_driver":0,
    "bording_time":300,
    "constraints" : ["AMB"]
 },
 {
    "id":149,
    "c":"AMB",
    "sdp":"SDP000611",
    "times":"06:25:00",
    "days":"M-T-W-TH-F",
    "name":"REYES, HORACIO",
    "site":"FMC SAN YSIDRO",
    "destination":"3010 DEL SOL BLVD, SAN DIEGO, CA, 92154",
    "other":"",
    "full_address":"1212 BEYER WAY, SAN DIEGO, CA 92154",
    "formatted_address":"1212 BEYER WAY, SAN DIEGO, CA 92154, USA",
    "number":"1212",
    "street":"BEYER WAY",
    "city":"SAN DIEGO",
    "state":"CA",
    "zip":"92154",
    "longitude": -117.06569981526523,
    "latitude": 32.57407966300225, 
    "spoken_languages": ["English"],
    "banned_ethnic_group":[
       
    ],
    "banned_drivers":[
       
    ],
    "prefered_driver": 1,
    "unsafe_for_female_driver":0,
    "unsafe_for_male_driver":0,
    "bording_time":300,
    "constraints" : ["AMB"]
 },
 {
    "id":150,
    "c":"AMB",
    "sdp":"SDP537764",
    "times":"04:10:00",
    "days":"M-T-W-TH-F",
    "name":"PLUNKET, PATRICK",
    "site":"FMC EAST COUNTY",
    "destination":"570 N 2ND ST, EL CAJON, CA, 92021",
    "other":"",
    "full_address":"1155 E MAIN ST, #33, EL CAJON, CA 92021",
    "formatted_address":"1155 E MAIN ST EL CAJON, CA 92021, USA",
    "number":"1155",
    "street":"E MAIN ST",
    "city":"EL CAJON",
    "state":"CA",
    "zip":"92021",
    "longitude": -116.94268614409711,
    "latitude": 32.79467117684239, 
    "spoken_languages": ["English"],
    "banned_ethnic_group":[
       
    ],
    "banned_drivers":[
       
    ],
    "prefered_driver": 1,
    "unsafe_for_female_driver":0,
    "unsafe_for_male_driver":0,
    "bording_time":300,
    "constraints" : ["AMB"]
 },
 {
    "id":151,
    "c":"AMB",
    "sdp":"SDP625168",
    "times":"04:30:00",
    "days":"M-T-W-TH-F",
    "name":"ZARAGOZA, PABLO",
    "site":"FMC GATEWAY EAST",
    "destination":"720 GATEWAY CENTER DR, STE B, SAN DIEGO, CA, 92102",
    "other":"",
    "full_address":"1000 GREENFIELD DR, APT 24, EL CAJON, CA 92019",
    "formatted_address":"1000 GREENFIELD DR EL CAJON, CA 92019, USA",
    "number":"1000",
    "street":"GREENFIELD DR",
    "city":"EL CAJON",
    "state":"CA",
    "zip":"92019",
    "longitude":-116.94826507293281,
    "latitude": 32.81395213575986, 
    "spoken_languages": ["English"],
    "banned_ethnic_group":[
       
    ],
    "banned_drivers":[
       
    ],
    "prefered_driver": 1,
    "unsafe_for_female_driver":0,
    "unsafe_for_male_driver":0,
    "bording_time":300,
    "constraints" : ["AMB"]
 },
 {
    "id":152,
    "c":"AMB",
    "sdp":"SDP002587",
    "times":"08:15:00",
    "days":"M-T-W-TH-F",
    "name":"DUENAS, ROSA",
    "site":"THE GEORGE G GLENNER ALZHEIMER'S FAMILY CENTERS INC.",
    "destination":"2765 MAIN STREET, SUITE A, CHULA VISTA, CA, 91911",
    "other":"",
    "full_address":"3515 VALLEY RD, APT 1, BONITA, CA 91902",
    "formatted_address":"3515 VALLEY RD BONITA, CA 91902, USA",
    "number":"3515",
    "street":"VALLEY RD",
    "city":"BONITA",
    "state":"CA",
    "zip":"91902",
    "longitude":-117.05351174409967,
    "latitude": 32.664638445516346, 
    "spoken_languages": ["English"],
    "banned_ethnic_group":[
       
    ],
    "banned_drivers":[
       
    ],
    "prefered_driver": 1,
    "unsafe_for_female_driver":0,
    "unsafe_for_male_driver":0,
    "bording_time":300,
    "constraints" : ["AMB"]
 },
 {
    "id":153,
    "c":"AMB",
    "sdp":"SDP002588",
    "times":"08:15:00",
    "days":"M-T-W-TH-F",
    "name":"DUENAS, RAMON",
    "site":"THE GEORGE G GLENNER ALZHEIMER'S FAMILY CENTERS INC.",
    "destination":"2765 MAIN STREET, SUITE A, CHULA VISTA, CA, 91911",
    "other":"",
    "full_address":"3515 VALLEY RD, APT 1, BONITA, CA 91902",
    "formatted_address":"3515 VALLEY RD BONITA, CA 91902, USA",
    "number":"3515",
    "street":"VALLEY RD",
    "city":"BONITA",
    "state":"CA",
    "zip":"91902",
    "longitude":-117.05351174409967,
    "latitude": 32.664638445516346, 
    "spoken_languages": ["English"],
    "banned_ethnic_group":[
       
    ],
    "banned_drivers":[
       
    ],
    "prefered_driver": 1,
    "unsafe_for_female_driver":0,
    "unsafe_for_male_driver":0,
    "bording_time":300,
    "constraints" : ["AMB"]
 },
 {
    "id":154,
    "c":"AMB",
    "sdp":"SDP002587",
    "times":"15:00:00",
    "days":"M-T-W-TH-F",
    "name":"DUENAS, ROSA",
    "site":"THE GEORGE G GLENNER ALZHEIMER'S FAMILY CENTERS INC.",
    "destination":"2765 MAIN STREET, SUITE A, CHULA VISTA, CA, 91911",
    "other":"",
    "full_address":"3515 VALLEY RD, APT 1, BONITA, CA 91902",
    "formatted_address":"3515 VALLEY RD BONITA, CA 91902, USA",
    "number":"3515",
    "street":"VALLEY RD",
    "city":"BONITA",
    "state":"CA",
    "zip":"91902",
    "longitude":-117.05351174409967,
    "latitude": 32.664638445516346, 
    "spoken_languages": ["English"],
    "banned_ethnic_group":[
       
    ],
    "banned_drivers":[
       
    ],
    "prefered_driver": 1,
    "unsafe_for_female_driver":0,
    "unsafe_for_male_driver":0,
    "bording_time":300,
    "constraints" : ["AMB"]
 },
 {
    "id":155,
    "c":"AMB",
    "sdp":"SDP002588",
    "times":"15:00:00",
    "days":"M-T-W-TH-F",
    "name":"DUENAS, RAMON",
    "site":"THE GEORGE G GLENNER ALZHEIMER'S FAMILY CENTERS INC.",
    "destination":"2765 MAIN STREET, SUITE A, CHULA VISTA, CA, 91911",
    "other":"",
    "full_address":"3515 VALLEY RD, APT 1, BONITA, CA 91902",
    "formatted_address":"3515 VALLEY RD BONITA, CA 91902, USA",
    "number":"3515",
    "street":"VALLEY RD",
    "city":"BONITA",
    "state":"CA",
    "zip":"91902",
    "longitude":-117.05351174409967,
    "latitude": 32.664638445516346, 
    "spoken_languages": ["English"],
    "banned_ethnic_group":[
       
    ],
    "banned_drivers":[
       
    ],
    "prefered_driver": 1,
    "unsafe_for_female_driver":0,
    "unsafe_for_male_driver":0,
    "bording_time":300,
    "constraints" : ["AMB"]
 },
 {
    "id":156,
    "c":"AMB",
    "sdp":"SDP002165",
    "times":"08:30:00",
    "days":"M-T-W-TH-F",
    "name":"CAZARES, FEDERICO",
    "site":"THE GEORGE G GLENNER ALZHEIMER'S FAMILY CENTERS INC.",
    "destination":"2765 MAIN STREET, SUITE A, CHULA VISTA, CA, 91911",
    "other":"",
    "full_address":"1205 PINEHURST RD, CHULA VISTA, CA 91915",
    "formatted_address":"1205 PINEHURST RD CHULA VISTA, CA 91915, USA",
    "number":"1205",
    "street":"PINEHURST RD",
    "city":"CHULA VISTA",
    "state":"CA",
    "zip":"91915",
    "longitude": -116.9583969017725,
    "latitude": 32.63914680743664, 
    "spoken_languages": ["English"],
    "banned_ethnic_group":[
       
    ],
    "banned_drivers":[
       
    ],
    "prefered_driver": 1,
    "unsafe_for_female_driver":0,
    "unsafe_for_male_driver":0,
    "bording_time":300,
    "constraints" : ["AMB"]
 },
 {
    "id":161,
    "c":"AMB",
    "sdp":"SDP327023",
    "times":"08:30:00",
    "days":"M-T-W-TH-F",
    "name":"CORTEZ, DINORA",
    "site":"THE GEORGE G GLENNER ALZHEIMER'S FAMILY CENTERS INC.",
    "destination":"2765 MAIN STREET, SUITE A, CHULA VISTA, CA, 91911",
    "other":"",
    "full_address":"221 DAVIDSON ST, CHULA VISTA, CA 91910",
    "formatted_address":"221 DAVIDSON ST CHULA VISTA CA 91910, USA",
    "number":"221",
    "street":"DAVIDSON ST",
    "city":"CHULA VISTA",
    "state":"CA",
    "zip":"91910",
    "longitude": -117.0774108308251,
    "latitude": 32.64434316447473, 
    "spoken_languages": ["English"],
    "banned_ethnic_group":[
       
    ],
    "banned_drivers":[
       
    ],
    "prefered_driver": 1,
    "unsafe_for_female_driver":0,
    "unsafe_for_male_driver":0,
    "bording_time":300,
    "constraints" : ["AMB"]
 },
 {
    "id":162,
    "c":"AMB",
    "sdp":"SDP002047",
    "times":"15:30:00",
    "days":"M-T-W-TH-F",
    "name":"VIZCAYA, ALFREDO",
    "site":"THE GEORGE G GLENNER ALZHEIMER'S FAMILY CENTERS INC.",
    "destination":"2765 MAIN STREET, SUITE A, CHULA VISTA, CA, 91911",
    "other":"",
    "full_address":"69 H ST, CHULA VISTA, CA 91910",
    "formatted_address":"69 H ST CHULA VISTA, CA 91910, USA",
    "number":"69",
    "street":"H ST",
    "city":"CHULA VISTA",
    "state":"CA",
    "zip":"91910",
    "longitude": -117.06774397315478,
    "latitude": 32.637472080437995, 
    "spoken_languages": ["English"],
    "banned_ethnic_group":[
       
    ],
    "banned_drivers":[
       
    ],
    "prefered_driver": 1,
    "unsafe_for_female_driver":0,
    "unsafe_for_male_driver":0,
    "bording_time":300,
    "constraints" : ["AMB"]
 },
 {
    "id":163,
    "c":"AMB",
    "sdp":"SDP409806",
    "times":"08:30:00",
    "days":"M-T-W-TH-F",
    "name":"MORFIN, ROSELIA",
    "site":"THE GEORGE G GLENNER ALZHEIMER'S FAMILY CENTERS INC.",
    "destination":"2765 MAIN STREET, SUITE A, CHULA VISTA, CA, 91911",
    "other":"",
    "full_address":"115 WOODLAWN AVENUE, APT B, CHULA VISTA, CA 91910",
    "formatted_address":"115 WOODLAWN AVE CHULA VISTA, CA 91910",
    "number":"115",
    "street":"WOODLAWN AVE",
    "city":"CHULA VISTA",
    "state":"CA",
    "zip":"91910",
    "longitude": -117.09831120198997,
    "latitude": 32.64336926421213, 
    "spoken_languages": ["English"],
    "banned_ethnic_group":[
       
    ],
    "banned_drivers":[
       
    ],
    "prefered_driver": 1,
    "unsafe_for_female_driver":0,
    "unsafe_for_male_driver":0,
    "bording_time":300,
    "constraints" : ["AMB"]
 },
 {
    "id":164,
    "c":"AMB",
    "sdp":"SDP002402",
    "times":"08:30:00",
    "days":"M-T-W-TH-F",
    "name":"DOXEY-DILLAR",
    "site":"THE GEORGE G GLENNER ALZHEIMER'S FAMILY CENTERS INC.",
    "destination":"2765 MAIN STREET, SUITE A, CHULA VISTA, CA, 91911",
    "other":"",
    "full_address":"3095 WEBSTER AVE, SAN DIEGO, CA 92113",
    "formatted_address":"3095 WEBSTER AVE SAN DIEGO, CA 92113",
    "number":"3095",
    "street":"WEBSTER AVE",
    "city":"SAN DIEGO",
    "state":"CA",
    "zip":"92113",
    "longitude": -117.12756603082377,
    "latitude": 32.70423956914715, 
    "spoken_languages": ["English"],
    "banned_ethnic_group":[
       
    ],
    "banned_drivers":[
       
    ],
    "prefered_driver": 1,
    "unsafe_for_female_driver":0,
    "unsafe_for_male_driver":0,
    "bording_time":300,
    "constraints" : ["AMB"]
 },
 {
    "id":165,
    "c":"AMB",
    "sdp":"SDP327023",
    "times":"16:45:00",
    "days":"M-T-W-TH-F",
    "name":"CORTEZ, DINORA",
    "site":"THE GEORGE G GLENNER ALZHEIMER'S FAMILY CENTERS INC.",
    "destination":"2765 MAIN STREET, SUITE A, CHULA VISTA, CA, 91911",
    "other":"",
    "full_address":"221 DAVIDSON ST, CHULA VISTA, CA 91910",
    "formatted_address":"221 DAVIDSON ST CHULA VISTA CA 91910, USA",
    "number":"221",
    "street":"DAVIDSON ST",
    "city":"CHULA VISTA",
    "state":"CA",
    "zip":"91910",
    "longitude": -117.0774108308251,
    "latitude": 32.64434316447473, 
    "spoken_languages": ["English"],
    "banned_ethnic_group":[
       
    ],
    "banned_drivers":[
       
    ],
    "prefered_driver": 1,
    "unsafe_for_female_driver":0,
    "unsafe_for_male_driver":0,
    "bording_time":300,
    "constraints" : ["AMB"]
 },
 {
    "id":166,
    "c":"AMB",
    "sdp":"SDP001796",
    "times":"17:00:00",
    "days":"M-T-W-TH-F",
    "name":"DEL PILAR, ZENAIDA",
    "site":"THE GEORGE G GLENNER ALZHEIMER'S FAMILY CENTERS INC.",
    "destination":"2765 MAIN STREET, SUITE A, CHULA VISTA, CA, 91911",
    "other":"",
    "full_address":"10987 WORTHING AVE, SAN DIEGO, CA 92126",
    "formatted_address":"10987 WORTHING AVE SAN DIEGO, CA 92126, USA",
    "number":"10987",
    "street":"WORTHING AVE",
    "city":"SAN DIEGO",
    "state":"CA",
    "zip":"92126",
    "longitude": -117.14492690198426,
    "latitude": 32.91974812217285, 
    "spoken_languages": ["English"],
    "banned_ethnic_group":[
       
    ],
    "banned_drivers":[
       
    ],
    "prefered_driver": 1,
    "unsafe_for_female_driver":0,
    "unsafe_for_male_driver":0,
    "bording_time":300,
    "constraints" : ["AMB"]
 },
 {
    "id":167,
    "c":"AMB",
    "sdp":"SDP001037",
    "times":"08:30:00",
    "days":"M-T-W-TH-F",
    "name":"CHOY, MARIA",
    "site":"THE GEORGE G GLENNER ALZHEIMER'S FAMILY CENTERS INC.",
    "destination":"2765 MAIN STREET, SUITE A, CHULA VISTA, CA, 91911",
    "other":"",
    "full_address":"3005 IRIS AVE, APT C, SAN YSIDRO, CA 92173",
    "formatted_address":"3005 IRIS AVE SAN YSIDRO, CA 92173, USA",
    "number":"3005",
    "street":"IRIS AVE",
    "city":"SAN YSIDRO",
    "state":"CA",
    "zip":"92173",
    "longitude": -117.06953557315617,
    "latitude": 32.56888655623602, 
    "spoken_languages": ["English"],
    "banned_ethnic_group":[
       
    ],
    "banned_drivers":[
       
    ],
    "prefered_driver": 1,
    "unsafe_for_female_driver":0,
    "unsafe_for_male_driver":0,
    "bording_time":300,
    "constraints" : ["AMB"]
 },
 {
    "id":168,
    "c":"AMB",
    "sdp":"SDP010020",
    "times":"08:30:00",
    "days":"M-T-W-TH-F",
    "name":"FLORES DE MALDONADO, CARMEN",
    "site":"THE GEORGE G GLENNER ALZHEIMER'S FAMILY CENTERS INC.",
    "destination":"2765 MAIN STREET, SUITE A, CHULA VISTA, CA, 91911",
    "other":"",
    "full_address":"2623 CAMINITO ABETO, SAN DIEGO, CA 92154",
    "formatted_address":"2623 CAMINITO ABETO SAN DIEGO, CA 92154, USA",
    "number":"2623",
    "street":"CAMINITO ABETO",
    "city":"SAN DIEGO",
    "state":"CA",
    "zip":"92154",
    "longitude": -117.07653683082657,
    "latitude": 32.57332047058213, 
    "spoken_languages": ["English"],
    "banned_ethnic_group":[
       
    ],
    "banned_drivers":[
       
    ],
    "prefered_driver": 1,
    "unsafe_for_female_driver":0,
    "unsafe_for_male_driver":0,
    "bording_time":300,
    "constraints" : ["AMB"]
 },
 {
    "id":169,
    "c":"AMB",
    "sdp":"SDP001037",
    "times":"15:30:00",
    "days":"M-T-W-TH-F",
    "name":"CHOY, MARIA",
    "site":"THE GEORGE G GLENNER ALZHEIMER'S FAMILY CENTERS INC.",
    "destination":"2765 MAIN STREET, SUITE A, CHULA VISTA, CA, 91911",
    "other":"",
    "full_address":"3005 IRIS AVE, APT C, SAN YSIDRO, CA 92173",
    "formatted_address":"3005 IRIS AVE SAN YSIDRO, CA 92173, USA",
    "number":"3005",
    "street":"IRIS AVE",
    "city":"SAN YSIDRO",
    "state":"CA",
    "zip":"92173",
    "longitude": -117.06953557315617,
    "latitude": 32.56888655623602, 
    "spoken_languages": ["English"],
    "banned_ethnic_group":[
       
    ],
    "banned_drivers":[
       
    ],
    "prefered_driver": 1,
    "unsafe_for_female_driver":0,
    "unsafe_for_male_driver":0,
    "bording_time":300,
    "constraints" : ["AMB"]
 },
 {
    "id":170,
    "c":"AMB",
    "sdp":"SDP010020",
    "times":"15:30:00",
    "days":"M-T-W-TH-F",
    "name":"FLORES DE MALDONADO, CARMEN",
    "site":"THE GEORGE G GLENNER ALZHEIMER'S FAMILY CENTERS INC.",
    "destination":"2765 MAIN STREET, SUITE A, CHULA VISTA, CA, 91911",
    "other":"",
    "full_address":"2623 CAMINITO ABETO, SAN DIEGO, CA 92154",
    "formatted_address":"2623 CAMINITO ABETO SAN DIEGO, CA 92154, USA",
    "number":"2623",
    "street":"CAMINITO ABETO",
    "city":"SAN DIEGO",
    "state":"CA",
    "zip":"92154",
    "longitude": -117.07653683082657,
    "latitude": 32.57332047058213, 
    "spoken_languages": ["English"],
    "banned_ethnic_group":[
       
    ],
    "banned_drivers":[
       
    ],
    "prefered_driver": 1,
    "unsafe_for_female_driver":0,
    "unsafe_for_male_driver":0,
    "bording_time":300,
    "constraints" : ["AMB"]
 },
 {
    "id":171,
    "c":"AMB",
    "sdp":"SDP000250",
    "times":"15:30:00",
    "days":"M-T-W-TH-F",
    "name":"MAGDALENO, MAXIMO",
    "site":"THE GEORGE G GLENNER ALZHEIMER'S FAMILY CENTERS INC.",
    "destination":"2765 MAIN STREET, SUITE A, CHULA VISTA, CA, 91911",
    "other":"",
    "full_address":"703 E 2ND ST, NATIONAL CITY, CA 91950",
    "formatted_address":"703 E 2ND ST NATIONAL CITY, CA 91950, USA",
    "number":"703",
    "street":"E 2ND ST",
    "city":"NATIONAL CITY",
    "state":"CA",
    "zip":"91950",
    "longitude": -117.10176027315383,
    "latitude": 32.68348018312669, 
    "spoken_languages": ["English"],
    "banned_ethnic_group":[
       
    ],
    "banned_drivers":[
       
    ],
    "prefered_driver": 1,
    "unsafe_for_female_driver":0,
    "unsafe_for_male_driver":0,
    "bording_time":300,
    "constraints" : ["AMB"]
 },
 {
    "id":172,
    "c":"AMB",
    "sdp":"SDP481295",
    "times":"15:30:00",
    "days":"M-T-W-TH-F",
    "name":"JUAREZ, FELIPE",
    "site":"THE GEORGE G GLENNER ALZHEIMER'S FAMILY CENTERS INC.",
    "destination":"2765 MAIN STREET, SUITE A, CHULA VISTA, CA, 91911",
    "other":"",
    "full_address":"254 22ND ST, SAN DIEGO, CA, 92102",
    "formatted_address":"254 22ND ST SAN DIEGO, CA 92102, USA",
    "number":"254",
    "street":"22ND ST",
    "city":"DIEGO",
    "state":"CA",
    "zip":"92102",
    "longitude": -117.1440721441755,
    "latitude": 32.70827596056952, 
    "spoken_languages": ["English"],
    "banned_ethnic_group":[
       
    ],
    "banned_drivers":[
       
    ],
    "prefered_driver": 1,
    "unsafe_for_female_driver":0,
    "unsafe_for_male_driver":0,
    "bording_time":300,
    "constraints" : ["AMB"]
 },
 {
    "id":173,
    "c":"AMB",
    "sdp":"SDP021147",
    "times":"07:50:00",
    "days":"M-T-W-TH-F",
    "name":"LANDERS, JUVENCIA",
    "site":"THE GEORGE G GLENNER ALZHEIMER'S FAMILY CENTERS INC.",
    "destination":"2765 MAIN STREET, SUITE A, CHULA VISTA, CA, 91911",
    "other":"",
    "full_address":"4066 OTAY VALLEY RD, CHULA VISTA, CA, 91911",
    "formatted_address":"4066 OTAY VALLEY RD CHULA VISTA, CA 91911, USA",
    "number":"4066",
    "street":"OTAY VALLEY RD",
    "city":"CHULA VISTA",
    "state":"CA",
    "zip":"91911",
    "longitude": -117.04563037301362,
    "latitude": 32.593959163974404, 
    "spoken_languages": ["English"],
    "banned_ethnic_group":[
       
    ],
    "banned_drivers":[
       
    ],
    "prefered_driver": 1,
    "unsafe_for_female_driver":0,
    "unsafe_for_male_driver":0,
    "bording_time":300,
    "constraints" : ["AMB"]
 },
 {
    "id":174,
    "c":"AMB",
    "sdp":"SDP000168",
    "times":"08:30:00",
    "days":"M-T-W-TH-F",
    "name":"RODRIGUEZ, FLORENTINO",
    "site":"THE GEORGE G GLENNER ALZHEIMER'S FAMILY CENTERS INC.",
    "destination":"2765 MAIN STREET, SUITE A, CHULA VISTA, CA, 91911",
    "other":"",
    "full_address":"919 MONSERATE AVE, CHULA VISTA, CA, 91911",
    "formatted_address":"919 MONSERATE AVE CHULA VISTA, CA 91911, USA",
    "number":"919",
    "street":"MONSERATE AVE",
    "city":"CHULA VISTA",
    "state":"CA",
    "zip":"91911",
    "longitude": -117.05143770184876,
    "latitude": 32.625817563719835, 
    "spoken_languages": ["English"],
    "banned_ethnic_group":[
       
    ],
    "banned_drivers":[
       
    ],
    "prefered_driver": 1,
    "unsafe_for_female_driver":0,
    "unsafe_for_male_driver":0,
    "bording_time":300,
    "constraints" : ["AMB"]
 },
 {
    "id":175,
    "c":"AMB",
    "sdp":"SDP500779",
    "times":"08:30:00",
    "days":"M-T-W-TH-F",
    "name":"NAVARRO NAVARRO, JOSE",
    "site":"THE GEORGE G GLENNER ALZHEIMER'S FAMILY CENTERS INC.",
    "destination":"2765 MAIN STREET, SUITE A, CHULA VISTA, CA, 91911",
    "other":"",
    "full_address":"501 ANITA ST, SPC 100, CHULA VISTA, CA, 91911",
    "formatted_address":"501 ANITA ST CHULA VISTA, CA 91911, USA",
    "number":"501",
    "street":"ANITA ST",
    "city":"CHULA VISTA",
    "state":"CA",
    "zip":"91911",
    "longitude": -117.07228947301356,
    "latitude": 32.59698333558609, 
    "spoken_languages": ["English"],
    "banned_ethnic_group":[
       
    ],
    "banned_drivers":[
       
    ],
    "prefered_driver": 1,
    "unsafe_for_female_driver":0,
    "unsafe_for_male_driver":0,
    "bording_time":300,
    "constraints" : ["AMB"]
 },
 {
    "id":176,
    "c":"AMB",
    "sdp":"SDP021147",
    "times":"15:30:00",
    "days":"M-T-W-TH-F",
    "name":"LANDERS, JUVENCIA",
    "site":"THE GEORGE G GLENNER ALZHEIMER'S FAMILY CENTERS INC.",
    "destination":"2765 MAIN STREET, SUITE A, CHULA VISTA, CA, 91911",
    "other":"",
    "full_address":"4066 OTAY VALLEY RD, CHULA VISTA, CA, 91911",
    "formatted_address":"4066 OTAY VALLEY RD CHULA VISTA, CA 91911, USA",
    "number":"4066",
    "street":"OTAY VALLEY RD",
    "city":"CHULA VISTA",
    "state":"CA",
    "zip":"91911",
    "longitude": -117.04563037301362,
    "latitude": 32.593959163974404, 
    "spoken_languages": ["English"],
    "banned_ethnic_group":[
       
    ],
    "banned_drivers":[
       
    ],
    "prefered_driver": 1,
    "unsafe_for_female_driver":0,
    "unsafe_for_male_driver":0,
    "bording_time":300,
    "constraints" : ["AMB"]
 },
 {
    "id":177,
    "c":"AMB",
    "sdp":"SDP000168",
    "times":"15:30:00",
    "days":"M-T-W-TH-F",
    "name":"RODRIGUEZ, FLORENTINO",
    "site":"THE GEORGE G GLENNER ALZHEIMER'S FAMILY CENTERS INC.",
    "destination":"2765 MAIN STREET, SUITE A, CHULA VISTA, CA, 91911",
    "other":"",
    "full_address":"919 MONSERATE AVE, CHULA VISTA, CA, 91911",
    "formatted_address":"919 MONSERATE AVE CHULA VISTA, CA 91911, USA",
    "number":"919",
    "street":"MONSERATE AVE",
    "city":"CHULA VISTA",
    "state":"CA",
    "zip":"91911",
    "longitude": -117.05143770184876,
    "latitude": 32.625817563719835, 
    "spoken_languages": ["English"],
    "banned_ethnic_group":[
       
    ],
    "banned_drivers":[
       
    ],
    "prefered_driver": 1,
    "unsafe_for_female_driver":0,
    "unsafe_for_male_driver":0,
    "bording_time":300,
    "constraints" : ["AMB"]
 },
 {
    "id":178,
    "c":"AMB",
    "sdp":"SDP002978",
    "times":"08:30:00",
    "days":"M-T-W-TH-F",
    "name":"GOMES, ELVIRA S",
    "site":"THE GEORGE G GLENNER ALZHEIMER'S FAMILY CENTERS INC.",
    "destination":"2765 MAIN STREET, SUITE A, CHULA VISTA, CA, 91911",
    "other":"",
    "full_address":"6195 CHADWICK AVE, SAN DIEGO, CA, 92139",
    "formatted_address":"6195 CHADWICK AVE SAN DIEGO, CA 92139, USA",
    "number":"6195",
    "street":"CHADWICK AVE",
    "city":"SAN DIEGO",
    "state":"CA",
    "zip":"92139",
    "longitude": -117.05578024417608,
    "latitude": 32.66979560531514, 
    "spoken_languages": ["English"],
    "banned_ethnic_group":[
       
    ],
    "banned_drivers":[
       
    ],
    "prefered_driver": 1,
    "unsafe_for_female_driver":0,
    "unsafe_for_male_driver":0,
    "bording_time":300,
    "constraints" : ["AMB"]
 },
 {
    "id":179,
    "c":"AMB",
    "sdp":"SDP000418",
    "times":"08:30:00",
    "days":"M-T-W-TH-F",
    "name":"ACEVES, MARIA LUISA",
    "site":"THE GEORGE G GLENNER ALZHEIMER'S FAMILY CENTERS INC.",
    "destination":"2765 MAIN STREET, SUITE A, CHULA VISTA, CA, 91911",
    "other":"",
    "full_address":"6512 PARKSIDE AVE, SAN DIEGO, CA, 92139",
    "formatted_address":"6512 PARKSIDE AVE SAN DIEGO, CA 92139, USA",
    "number":"6512",
    "street":"PARKSIDE AVE",
    "city":"SAN DIEGO",
    "state":"CA",
    "zip":"92139",
    "longitude": -117.05578024417608,
    "latitude": 32.66979560531514, 
    "spoken_languages": ["English"],
    "banned_ethnic_group":[
       
    ],
    "banned_drivers":[
       
    ],
    "prefered_driver": 1,
    "unsafe_for_female_driver":0,
    "unsafe_for_male_driver":0,
    "bording_time":300,
    "constraints" : ["AMB"]
 },
 {
    "id":180,
    "c":"AMB",
    "sdp":"SDP439597",
    "times":"08:30:00",
    "days":"M-T-W-TH-F",
    "name":"LOPEZ, ADOLFO",
    "site":"THE GEORGE G GLENNER ALZHEIMER'S FAMILY CENTERS INC.",
    "destination":"2765 MAIN STREET, SUITE A, CHULA VISTA, CA, 91911",
    "other":"",
    "full_address":"5722 WINCHESTER ST SAN DIEGO, CA 92139",
    "formatted_address":"5722 WINCHESTER ST SAN DIEGO, CA 92139, USA",
    "number":"5722",
    "street":"WINCHESTER ST",
    "city":"SAN DIEGO",
    "state":"CA",
    "zip":"92139",
    "longitude":  -117.06613057301205,
    "latitude": 32.67218136850332,
    "spoken_languages": ["English"],
    "banned_ethnic_group":[
       
    ],
    "banned_drivers":[
       
    ],
    "prefered_driver": 1,
    "unsafe_for_female_driver":0,
    "unsafe_for_male_driver":0,
    "bording_time":300,
    "constraints" : ["AMB"]
 },
 {
    "id":181,
    "c":"AMB",
    "sdp":"SDP001387",
    "times":"08:30:00",
    "days":"M-T-W-TH-F",
    "name":"MATINZO, TOMMY",
    "site":"THE GEORGE G GLENNER ALZHEIMER'S FAMILY CENTERS INC.",
    "destination":"2765 MAIN STREET, SUITE A, CHULA VISTA, CA, 91911",
    "other":"",
    "full_address":"5505 SAN MIGUEL RD, BONITA, CA, 91902",
    "formatted_address":"5505 SAN MIGUEL RD BONITA, CA 91902, USA",
    "number":"5505",
    "street":"SAN MIGUEL RD",
    "city":"BONITA",
    "state":"CA",
    "zip":"91902",
    "longitude": -117.0140528018477,
    "latitude": 32.676002690881866, 
    "spoken_languages": ["English"],
    "banned_ethnic_group":[
       
    ],
    "banned_drivers":[
       
    ],
    "prefered_driver": 1,
    "unsafe_for_female_driver":0,
    "unsafe_for_male_driver":0,
    "bording_time":300,
    "constraints" : ["AMB"]
 },
 {
    "id":182,
    "c":"AMB",
    "sdp":"SDP000418",
    "times":"15:30:00",
    "days":"M-T-W-TH-F",
    "name":"ACEVES, MARIA LUISA",
    "site":"THE GEORGE G GLENNER ALZHEIMER'S FAMILY CENTERS INC.",
    "destination":"2765 MAIN STREET, SUITE A, CHULA VISTA, CA, 91911",
    "other":"",
    "full_address":"6512 PARKSIDE AVE, SAN DIEGO, CA, 92139",
    "formatted_address":"6512 PARKSIDE AVE SAN DIEGO, CA 92139, USA",
    "number":"6512",
    "street":"PARKSIDE AVE",
    "city":"SAN DIEGO",
    "state":"CA",
    "zip":"92139",
    "longitude": -117.05578024417608,
    "latitude": 32.66979560531514, 
    "spoken_languages": ["English"],
    "banned_ethnic_group":[
       
    ],
    "banned_drivers":[
       
    ],
    "prefered_driver": 1,
    "unsafe_for_female_driver":0,
    "unsafe_for_male_driver":0,
    "bording_time":300,
    "constraints" : ["AMB"]
 },
 {
    "id":183,
    "c":"AMB",
    "sdp":"SDP439597",
    "times":"15:30:00",
    "days":"M-T-W-TH-F",
    "name":"LOPEZ, ADOLFO",
    "site":"THE GEORGE G GLENNER ALZHEIMER'S FAMILY CENTERS INC.",
    "destination":"2765 MAIN STREET, SUITE A, CHULA VISTA, CA, 91911",
    "other":"",
    "full_address":"5722 WINCHESTER ST SAN DIEGO, CA 92139",
    "formatted_address":"5722 WINCHESTER ST SAN DIEGO, CA 92139, USA",
    "number":"5722",
    "street":"WINCHESTER ST",
    "city":"SAN DIEGO",
    "state":"CA",
    "zip":"92139",
    "longitude":  -117.06613057301205,
    "latitude": 32.67218136850332,
    "spoken_languages": ["English"],
    "banned_ethnic_group":[
       
    ],
    "banned_drivers":[
       
    ],
    "prefered_driver": 1,
    "unsafe_for_female_driver":0,
    "unsafe_for_male_driver":0,
    "bording_time":300,
    "constraints" : ["AMB"]
 },
 {
    "id":184,
    "c":"AMB",
    "sdp":"SDP002978",
    "times":"15:00:00",
    "days":"M-T-W-TH-F",
    "name":"GOMES, ELVIRA S",
    "site":"THE GEORGE G GLENNER ALZHEIMER'S FAMILY CENTERS INC.",
    "destination":"2765 MAIN STREET, SUITE A, CHULA VISTA, CA, 91911",
    "other":"",
    "full_address":"6195 CHADWICK AVE, SAN DIEGO, CA, 92139",
    "formatted_address":"6195 CHADWICK AVE SAN DIEGO, CA 92139, USA",
    "number":"6195",
    "street":"CHADWICK AVE",
    "city":"SAN DIEGO",
    "state":"CA",
    "zip":"92139",
    "longitude": -117.05578024417608,
    "latitude": 32.66979560531514, 
    "spoken_languages": ["English"],
    "banned_ethnic_group":[
       
    ],
    "banned_drivers":[
       
    ],
    "prefered_driver": 1,
    "unsafe_for_female_driver":0,
    "unsafe_for_male_driver":0,
    "bording_time":300,
    "constraints" : ["AMB"]
 },
 {
    "id":185,
    "c":"AMB",
    "sdp":"SDP588676",
    "times":"08:30:00",
    "days":"M-T-W-TH-F",
    "name":"RODRIGUEZ, ENRIQUE",
    "site":"THE GEORGE G GLENNER ALZHEIMER'S FAMILY CENTERS INC.",
    "destination":"2765 MAIN STREET, SUITE A, CHULA VISTA, CA, 91911",
    "other":"",
    "full_address":"3320 VISTA AVE, APT 05, LEMON GROVE, CA 91945",
    "formatted_address":"3320 VISTA AVE LEMON GROVE, CA 91945, USA",
    "number":"3320",
    "street":"VISTA AVE",
    "city":"LEMON GROVE",
    "state":"CA",
    "zip":"91945",
    "longitude": -117.04181507301054,
    "latitude": 32.74213866113107, 
    "spoken_languages": ["English"],
    "banned_ethnic_group":[
       
    ],
    "banned_drivers":[
       
    ],
    "prefered_driver": 1,
    "unsafe_for_female_driver":0,
    "unsafe_for_male_driver":0,
    "bording_time":300,
    "constraints" : ["AMB"]
 },
 {
    "id":186,
    "c":"AMB",
    "sdp":"SDP588676",
    "times":"15:30:00",
    "days":"M-T-W-TH-F",
    "name":"RODRIGUEZ, ENRIQUE",
    "site":"THE GEORGE G GLENNER ALZHEIMER'S FAMILY CENTERS INC.",
    "destination":"2765 MAIN STREET, SUITE A, CHULA VISTA, CA, 91911",
    "other":"",
    "full_address":"3320 VISTA AVE, APT 05, LEMON GROVE, CA 91945",
    "formatted_address":"3320 VISTA AVE LEMON GROVE, CA 91945, USA",
    "number":"3320",
    "street":"VISTA AVE",
    "city":"LEMON GROVE",
    "state":"CA",
    "zip":"91945",
    "longitude": -117.04181507301054,
    "latitude": 32.74213866113107, 
    "spoken_languages": ["English"],
    "banned_ethnic_group":[
       
    ],
    "banned_drivers":[
       
    ],
    "prefered_driver": 1,
    "unsafe_for_female_driver":0,
    "unsafe_for_male_driver":0,
    "bording_time":300,
    "constraints" : ["AMB"]
 },
 {
    "id":187,
    "c":"AMB",
    "sdp":"SDP500779",
    "times":"16:45:00",
    "days":"M-T-W-TH-F",
    "name":"NAVARRO NAVARRO, JOSE",
    "site":"THE GEORGE G GLENNER ALZHEIMER'S FAMILY CENTERS INC.",
    "destination":"2765 MAIN STREET, SUITE A, CHULA VISTA, CA, 91911",
    "other":"",
    "full_address":"501 ANITA ST, SPC 100, CHULA VISTA, CA, 91911",
    "formatted_address":"501 ANITA ST CHULA VISTA, CA 91911, USA",
    "number":"501",
    "street":"ANITA ST",
    "city":"CHULA VISTA",
    "state":"CA",
    "zip":"91911",
    "longitude": -117.07228947301356,
    "latitude": 32.59698333558609, 
    "spoken_languages": ["English"],
    "banned_ethnic_group":[
       
    ],
    "banned_drivers":[
       
    ],
    "prefered_driver": 1,
    "unsafe_for_female_driver":0,
    "unsafe_for_male_driver":0,
    "bording_time":300,
    "constraints" : ["AMB"]
 },
 {
    "id":188,
    "c":"AMB",
    "sdp":"SDP001613",
    "times":"16:40:00",
    "days":"M-T-W-TH-F",
    "name":"KIDNEY, ROBERT J",
    "site":"THE GEORGE G GLENNER ALZHEIMER'S FAMILY CENTERS INC.",
    "destination":"2765 MAIN STREET, SUITE A, CHULA VISTA, CA, 91911",
    "other":"",
    "full_address":"423 AVOCADO AVE, EL CAJON, CA 92020",
    "formatted_address":"423 AVOCADO AVE EL CAJON, CA 92020, USA",
    "number":"423",
    "street":"AVOCADO AVE",
    "city":"EL CAJON",
    "state":"CA",
    "zip":"92020",
    "longitude": -116.95712664417388,
    "latitude": 32.79136988378092, 
    "spoken_languages": ["English"],
    "banned_ethnic_group":[
       
    ],
    "banned_drivers":[
       
    ],
    "prefered_driver": 1,
    "unsafe_for_female_driver":0,
    "unsafe_for_male_driver":0,
    "bording_time":300,
    "constraints" : ["AMB"]
 },
 {
    "id":189,
    "c":"AMB",
    "sdp":"SDP656685",
    "times":"09:00:00",
    "days":"M-T-W-TH-F",
    "name":"BECERRA, MARCIAL",
    "site":"PACE VISTA",
    "destination":"1840 WEST DR, VISTA, CA 92083",
    "other":"",
    "full_address":"525 W EL NORTE PARKWAY, SPACE #80, ESCONDIDO, CA, 92026",
    "formatted_address":"525 W EL NORTE PARKWAY ESCONDIDO, CA 92026, USA",
    "number":"525",
    "street":"W EL NORTE PARKWAY",
    "city":"ESCONDIDO",
    "state":"CA",
    "zip":"92026",
    "longitude": -117.10078773067407,
    "latitude": 33.142471682658304, 
    "spoken_languages": ["English"],
    "banned_ethnic_group":[
       
    ],
    "banned_drivers":[
       
    ],
    "prefered_driver": 1,
    "unsafe_for_female_driver":0,
    "unsafe_for_male_driver":0,
    "bording_time":300,
    "constraints" : ["AMB"]
 },
 {
    "id":190,
    "c":"AMB",
    "sdp":"SDP001906",
    "times":"08:00:00",
    "days":"M-T-W-TH-F",
    "name":"IDA, ANTONIO",
    "site":"PACE VISTA",
    "destination":"1840 WEST DR, VISTA, CA 92083",
    "other":"",
    "full_address":"2406 BEAR VALLEY PARKWAY, ESCONDIDO, CA, 92027",
    "formatted_address":"2406 BEAR VALLEY PARKWAY ESCONDIDO, CA 92027, USA",
    "number":"2406",
    "street":"BEAR VALLEY PARKWAY",
    "city":"ESCONDIDO",
    "state":"CA",
    "zip":"92027",
    "longitude": -117.04234643067424,
    "latitude": 33.138075641844814, 
    "spoken_languages": ["English"],
    "banned_ethnic_group":[
       
    ],
    "banned_drivers":[
       
    ],
    "prefered_driver": 1,
    "unsafe_for_female_driver":0,
    "unsafe_for_male_driver":0,
    "bording_time":300,
    "constraints" : ["AMB"]
 },
 {
    "id":191,
    "c":"AMB",
    "sdp":"SDP001907",
    "times":"08:00:00",
    "days":"M-T-W-TH-F",
    "name":"ROONEY, HELEN",
    "site":"PACE VISTA",
    "destination":"1840 WEST DR, VISTA, CA 92083",
    "other":"",
    "full_address":"811 E 4TH AVE, ESCONDIDO, CA 92025",
    "formatted_address":"811 E 4TH AVE ESCONDIDO, CA 92025, USA",
    "number":"811",
    "street":"E 4TH AVE",
    "city":"ESCONDIDO",
    "state":"CA",
    "zip":"92025",
    "longitude": -117.04234643067424,
    "latitude": 33.138075641844814, 
    "spoken_languages": ["English"],
    "banned_ethnic_group":[
       
    ],
    "banned_drivers":[
       
    ],
    "prefered_driver": 1,
    "unsafe_for_female_driver":0,
    "unsafe_for_male_driver":0,
    "bording_time":300,
    "constraints" : ["AMB"]
 },
 {
    "id":192,
    "c":"AMB",
    "sdp":"SDP001072",
    "times":"08:30:00",
    "days":"M-T-W-TH-F",
    "name":"CERVANTES, LIDIA",
    "site":"PACE VISTA",
    "destination":"1840 WEST DR, VISTA, CA 92083",
    "other":"",
    "full_address":"2435 PRUETT DR, VISTA, CA 92084",
    "formatted_address":"2435 PRUETT DR VISTA, CA 92084, USA",
    "number":"2435",
    "street":"PRUETT DR",
    "city":"VISTA",
    "state":"CA",
    "zip":"92084",
    "longitude": -117.2426596730006,
    "latitude": 33.239277797470535, 
    "spoken_languages": ["English"],
    "banned_ethnic_group":[
       
    ],
    "banned_drivers":[
       
    ],
    "prefered_driver": 1,
    "unsafe_for_female_driver":0,
    "unsafe_for_male_driver":0,
    "bording_time":300,
    "constraints" : ["AMB"]
 },
 {
    "id":193,
    "c":"AMB",
    "sdp":"SDP002054",
    "times":"09:00:00",
    "days":"M-T-W-TH-F",
    "name":"CHIN, TSIN C",
    "site":"THE GEORGE G GLENNER ALZHEIMER'S FAMILY CENTERS INC.",
    "destination":"2765 MAIN STREET, SUITE A, CHULA VISTA, CA, 91911",
    "other":"",
    "full_address":"335 SAXONY RD, ENCINITAS, CA 92024",
    "formatted_address":"335 SAXONY RD ENCINITAS, CA 92024, USA",
    "number":"335",
    "street":"SAXONY RD",
    "city":"ENCINITAS",
    "state":"CA",
    "zip":"92024",
    "longitude": -117.2848552592429,
    "latitude": 33.05388772989461, 
    "spoken_languages": ["English"],
    "banned_ethnic_group":[
       
    ],
    "banned_drivers":[
       
    ],
    "prefered_driver": 1,
    "unsafe_for_female_driver":0,
    "unsafe_for_male_driver":0,
    "bording_time":300,
    "constraints" : ["AMB"]
 },
 {
    "id":194,
    "c":"AMB",
    "sdp":"SDP001438",
    "times":"09:00:00",
    "days":"M-T-W-TH-F",
    "name":"MURGIA DE ROME, SILVIA",
    "site":"THE GEORGE G GLENNER ALZHEIMER'S FAMILY CENTERS INC.",
    "destination":"2765 MAIN STREET, SUITE A, CHULA VISTA, CA, 91911",
    "other":"",
    "full_address":"867 AVENIDA ABEJA, SAN MARCOS, CA 92069",
    "formatted_address":"867 AVENIDA ABEJA SAN MARCOS, CA 92069, USA",
    "number":"867",
    "street":"AVENIDA ABEJA",
    "city":"SAN MARCOS",
    "state":"CA",
    "zip":"92069",
    "longitude": -117.18261644416623,
    "latitude": 33.167541221033844, 
    "spoken_languages": ["English"],
    "banned_ethnic_group":[
       
    ],
    "banned_drivers":[
       
    ],
    "prefered_driver": 1,
    "unsafe_for_female_driver":0,
    "unsafe_for_male_driver":0,
    "bording_time":300,
    "constraints" : ["AMB"]
 },
 {
    "id":195,
    "c":"AMB",
    "sdp":"SDP000906",
    "times":"08:00:00",
    "days":"M-T-W-TH-F",
    "name":"PALACIOS, PEDRO",
    "site":"PACE VISTA",
    "destination":"1840 WEST DR, VISTA, CA 92083",
    "other":"",
    "full_address":"10794 CARMEL MNT RD, APT A, SAN DIEGO, CA 92129",
    "formatted_address":"10794 CARMEL MNT RD SAN DIEGO, CA 92129, USA",
    "number":"10794",
    "street":"CARMEL MNT RD",
    "city":"SAN DIEGO",
    "state":"CA",
    "zip":"92129",
    "longitude": -117.094725873006,
    "latitude": 32.97131800046549, 
    "spoken_languages": ["English"],
    "banned_ethnic_group":[
       
    ],
    "banned_drivers":[
       
    ],
    "prefered_driver": 1,
    "unsafe_for_female_driver":0,
    "unsafe_for_male_driver":0,
    "bording_time":300,
    "constraints" : ["AMB"]
 },
 {
    "id":196,
    "c":"AMB",
    "sdp":"SDP000905",
    "times":"08:00:00",
    "days":"M-T-W-TH-F",
    "name":"PALACIOS, SUSANA",
    "site":"PACE VISTA",
    "destination":"1840 WEST DR, VISTA, CA 92083",
    "other":"",
    "full_address":"10794 CARMEL MNT RD, APT A, SAN DIEGO, CA 92129",
    "formatted_address":"10794 CARMEL MNT RD SAN DIEGO, CA 92129, USA",
    "number":"10794",
    "street":"CARMEL MNT RD",
    "city":"SAN DIEGO",
    "state":"CA",
    "zip":"92129",
    "longitude": -117.094725873006,
    "latitude": 32.97131800046549, 
    "spoken_languages": ["English"],
    "banned_ethnic_group":[
       
    ],
    "banned_drivers":[
       
    ],
    "prefered_driver": 1,
    "unsafe_for_female_driver":0,
    "unsafe_for_male_driver":0,
    "bording_time":300,
    "constraints" : ["AMB"]
 },
 {
    "id":197,
    "c":"AMB",
    "sdp":"SDP001425",
    "times":"09:00:00",
    "days":"M-T-W-TH-F",
    "name":"AVILA, MARIA",
    "site":"PACE VISTA",
    "destination":"1840 WEST DR, VISTA, CA 92083",
    "other":"",
    "full_address":"1403 DIVISION ST, APT 8, OCEANSIDE, CA 92054",
    "formatted_address":"1403 DIVISION ST OCEANSIDE, CA 92054, USA",
    "number":"1403",
    "street":"DIVISION ST",
    "city":"OCEANSIDE",
    "state":"CA",
    "zip":"92054",
    "longitude": -117.36874207300133,
    "latitude": 33.196179960993554, 
    "spoken_languages": ["English"],
    "banned_ethnic_group":[
       
    ],
    "banned_drivers":[
       
    ],
    "prefered_driver": 1,
    "unsafe_for_female_driver":0,
    "unsafe_for_male_driver":0,
    "bording_time":300,
    "constraints" : ["AMB"]
 },
 {
    "id":198,
    "c":"AMB",
    "sdp":"SDP001858",
    "times":"09:00:00",
    "days":"M-T-W-TH-F",
    "name":"PALACIOS QUINTA, ROSALINA",
    "site":"PACE VISTA",
    "destination":"1840 WEST DR, VISTA, CA 92083",
    "other":"",
    "full_address":"201 COUNTRY CLUB LN, OCEANSIDE, CA 92054",
    "formatted_address":"201 COUNTRY CLUB LN OCEANSIDE, CA 92054, USA",
    "number":"201",
    "street":"COUNTRY CLUB LN",
    "city":"OCEANSIDE",
    "state":"CA",
    "zip":"92054",
    "longitude": -117.36563057300133,
    "latitude": 33.19906806585404, 
    "spoken_languages": ["English"],
    "banned_ethnic_group":[
       
    ],
    "banned_drivers":[
       
    ],
    "prefered_driver": 1,
    "unsafe_for_female_driver":0,
    "unsafe_for_male_driver":0,
    "bording_time":300,
    "constraints" : ["AMB"]
 },
 {
    "id":199,
    "c":"AMB",
    "sdp":"SDP002468",
    "times":"09:00:00",
    "days":"M-T-W-TH-F",
    "name":"LUEVANOS, JUAN",
    "site":"PACE VISTA",
    "destination":"1840 WEST DR, VISTA, CA 92083",
    "other":"",
    "full_address":"1911 BUSH ST, OCEANSIDE, CA 92058",
    "formatted_address":"1911 BUSH ST OCEANSIDE, CA 92058, USA",
    "number":"1911",
    "street":"BUSH ST",
    "city":"OCEANSIDE",
    "state":"CA",
    "zip":"92058",
    "longitude": -117.36608957300129,
    "latitude": 33.20553415060262, 
    "spoken_languages": ["English"],
    "banned_ethnic_group":[
       
    ],
    "banned_drivers":[
       
    ],
    "prefered_driver": 1,
    "unsafe_for_female_driver":0,
    "unsafe_for_male_driver":0,
    "bording_time":300,
    "constraints" : ["AMB"]
 },
 {
    "id":200,
    "c":"AMB",
    "sdp":"SDP002828",
    "times":"09:00:00",
    "days":"M-T-W-TH-F",
    "name":"FIGUEROA, RAUL",
    "site":"PACE VISTA",
    "destination":"1840 WEST DR, VISTA, CA 92083",
    "other":"",
    "full_address":"700 CAREY RD, OCEANSIDE, CA 92058",
    "formatted_address":"700 CAREY RD, OCEANSIDE, CA 92058, USA",
    "number":"700",
    "street":"CAREY RD",
    "city":"OCEANSIDE",
    "state":"CA",
    "zip":"92058",
    "longitude": -117.36078410183693,
    "latitude": 33.20894894254698, 
    "spoken_languages": ["English"],
    "banned_ethnic_group":[
       
    ],
    "banned_drivers":[
       
    ],
    "prefered_driver": 1,
    "unsafe_for_female_driver":0,
    "unsafe_for_male_driver":0,
    "bording_time":300,
    "constraints" : ["AMB"]
 },
 {
    "id":201,
    "c":"AMB",
    "sdp":"SDP002879",
    "times":"09:00:00",
    "days":"M-T-W-TH-F",
    "name":"BENNETT, MARINA",
    "site":"PACE VISTA",
    "destination":"1840 WEST DR, VISTA, CA 92083",
    "other":"",
    "full_address":"908 NORTH FIG ST, APT F, ESCONDIDO, CA 92026",
    "formatted_address":"908 NORTH FIG ST, ESCONDIDO, CA 92026, USA",
    "number":"908",
    "street":"NORTH FIG ST",
    "city":"ESCONDIDO",
    "state":"CA",
    "zip":"92026",
    "longitude":-117.07664304416683,
    "latitude": 33.1357251992349, 
    "spoken_languages": ["English"],
    "banned_ethnic_group":[
       
    ],
    "banned_drivers":[
       
    ],
    "prefered_driver": 1,
    "unsafe_for_female_driver":0,
    "unsafe_for_male_driver":0,
    "bording_time":300,
    "constraints" : ["AMB"]
 },
 {
    "id":202,
    "c":"AMB",
    "sdp":"SDP001895",
    "times":"08:00:00",
    "days":"M-T-W-TH-F",
    "name":"RAYGOZA, RICARDO",
    "site":"PACE VISTA",
    "destination":"1840 WEST DR, VISTA, CA 92083",
    "other":"",
    "full_address":"2041 CACTUS PL,  ESCONDIDO, CA 92027",
    "formatted_address":"2041 CACTUS PL,  ESCONDIDO, CA 92027, USA",
    "number":"2041",
    "street":"CACTUS PL",
    "city":"ESCONDIDO",
    "state":"CA",
    "zip":"92027",
    "longitude":-117.05392753067413,
    "latitude": 33.14383001275413, 
    "spoken_languages": ["English"],
    "banned_ethnic_group":[
       
    ],
    "banned_drivers":[
       
    ],
    "prefered_driver": 1,
    "unsafe_for_female_driver":0,
    "unsafe_for_male_driver":0,
    "bording_time":300,
    "constraints" : ["AMB"]
 },
 {
    "id":203,
    "c":"AMB",
    "sdp":"SDP002327",
    "times":"09:00:00",
    "days":"M-T-W-TH-F",
    "name":"JACKSON, DEBORA A",
    "site":"PACE VISTA",
    "destination":"1840 WEST DR, VISTA, CA 92083",
    "other":"",
    "full_address":"325 S SANTA FE AVE, VISTA, CA 92083",
    "formatted_address":"325 S SANTA FE AVE VISTA, CA 92083, USA",
    "number":"325",
    "street":"S SANTA FE AVE",
    "city":"VISTA",
    "state":"CA",
    "zip":"92083",
    "longitude":-117.24122345950887,
    "latitude": 33.198715922006116, 
    "spoken_languages": ["English"],
    "banned_ethnic_group":[
       
    ],
    "banned_drivers":[
       
    ],
    "prefered_driver": 1,
    "unsafe_for_female_driver":0,
    "unsafe_for_male_driver":0,
    "bording_time":300,
    "constraints" : ["AMB"]
 },
 {
    "id":204,
    "c":"AMB",
    "sdp":"SDP002866",
    "times":"09:00:00",
    "days":"M-T-W-TH-F",
    "name":"SCHMIDT, LINDA",
    "site":"PACE VISTA",
    "destination":"1840 WEST DR, VISTA, CA 92083",
    "other":"",
    "full_address":"14 JON LN, OCEANSIDE, CA 92058",
    "formatted_address":"14 JON LN OCEANSIDE, CA 92058, USA",
    "number":"14",
    "street":"JON LN",
    "city":"OCEANSIDE",
    "state":"CA",
    "zip":"92058",
    "longitude":-117.32551663067223,
    "latitude": 33.22996576959297, 
    "spoken_languages": ["English"],
    "banned_ethnic_group":[
       
    ],
    "banned_drivers":[
       
    ],
    "prefered_driver": 1,
    "unsafe_for_female_driver":0,
    "unsafe_for_male_driver":0,
    "bording_time":300,
    "constraints" : ["AMB"]
 },
 {
    "id":205,
    "c":"AMB",
    "sdp":"SDP001866",
    "times":"09:00:00",
    "days":"M-T-W-TH-F",
    "name":"HERNANDEZ, ELVIRA",
    "site":"PACE VISTA",
    "destination":"1840 WEST DR, VISTA, CA 92083",
    "other":"",
    "full_address":"1429 VIA ENCINOS DR, FALLBROOK, CA 92028",
    "formatted_address":"1429 VIA ENCINOS DR FALLBROOK, CA 92028, USA",
    "number":"1429",
    "street":"VIA ENCINOS DR",
    "city":"FALLBROOK",
    "state":"CA",
    "zip":"92028",
    "longitude":-117.22866344416298,
    "latitude": 33.3245405046965, 
    "spoken_languages": ["English"],
    "banned_ethnic_group":[
       
    ],
    "banned_drivers":[
       
    ],
    "prefered_driver": 1,
    "unsafe_for_female_driver":0,
    "unsafe_for_male_driver":0,
    "bording_time":300,
    "constraints" : ["AMB"]
 },
 {
    "id":206,
    "c":"AMB",
    "sdp":"SDP002698",
    "times":"09:00:00",
    "days":"M-T-W-TH-F",
    "name":"NOGUEDA, RAFAEL",
    "site":"PACE VISTA",
    "destination":"1840 WEST DR, VISTA, CA 92083",
    "other":"",
    "full_address":"6419 TOBRIA TERRACE, CARLSBAD, CA 92011",
    "formatted_address":"6419 TOBRIA TERRACE CARLSBAD, CA 92011, USA",
    "number":"6419",
    "street":"TOBRIA TERRACE",
    "city":"CARLSBAD",
    "state":"CA",
    "zip":"92011",
    "longitude": -117.2723205441672,
    "latitude": 33.11470649207113,
    "spoken_languages": ["English"],
    "banned_ethnic_group":[
       
    ],
    "banned_drivers":[
       
    ],
    "prefered_driver": 1,
    "unsafe_for_female_driver":0,
    "unsafe_for_male_driver":0,
    "bording_time":300,
    "constraints" : ["AMB"]
 },
 {
    "id":208,
    "c":"AMB",
    "sdp":"SDP003385",
    "times":"09:00:00",
    "days":"M-T-W-TH-F",
    "name":"SIRYPANGNO, VON",
    "site":"PACE VISTA",
    "destination":"1840 WEST DR, VISTA, CA 92083",
    "other":"",
    "full_address":"1134 ADELE LN, SAN MARCOS, CA 92078",
    "formatted_address":"1134 ADELE LN SAN MARCOS, CA 92078, USA",
    "number":"1134",
    "street":"ADELE LN",
    "city":"SAN MARCOS",
    "state":"CA",
    "zip":"92078",
    "longitude":-117.1390553306744,
    "latitude": 33.12946574510546, 
    "spoken_languages": ["English"],
    "banned_ethnic_group":[
       
    ],
    "banned_drivers":[
       
    ],
    "prefered_driver": 1,
    "unsafe_for_female_driver":0,
    "unsafe_for_male_driver":0,
    "bording_time":300,
    "constraints" : ["AMB"]
 },
 {
    "id":209,
    "c":"AMB",
    "sdp":"SDP002919",
    "times":"11:00:00",
    "days":"M-T-W-TH-F",
    "name":"LOPEZ, YOLANDA O",
    "site":"PACE VISTA",
    "destination":"1840 WEST DR, VISTA, CA 92083",
    "other":"",
    "full_address":"6049 PASEO ACAMPO, CARLSBAD, CA, 92009",
    "formatted_address":"6049 PASEO ACAMPO, CARLSBAD, CA, 92009, USA",
    "number":"6049",
    "street":"PASEO ACAMPO",
    "city":"CARLSBAD",
    "state":"CA",
    "zip":"92009",
    "longitude":-117.2423760306744,
    "latitude": 33.12777356399049, 
    "spoken_languages": ["English"],
    "banned_ethnic_group":[
       
    ],
    "banned_drivers":[
       
    ],
    "prefered_driver": 1,
    "unsafe_for_female_driver":0,
    "unsafe_for_male_driver":0,
    "bording_time":300,
    "constraints" : ["AMB"]
 },
 {
    "id":210,
    "c":"AMB",
    "sdp":"SDP003364",
    "times":"09:00:00",
    "days":"M-T-W-TH-F",
    "name":"ANDERSON, ISABEL S",
    "site":"PACE VISTA",
    "destination":"1840 WEST DR, VISTA, CA 92083",
    "other":"",
    "full_address":"160 NETTLETON RD, APT 53, VISTA, CA 92083",
    "formatted_address":"160 NETTLETON RD VISTA, CA 92083, USA",
    "number":"160",
    "street":"NETTLETON RD",
    "city":"VISTA",
    "state":"CA",
    "zip":"92083",
    "longitude":-117.28302567300149,
    "latitude": 33.189477809863305, 
    "spoken_languages": ["English"],
    "banned_ethnic_group":[
       
    ],
    "banned_drivers":[
       
    ],
    "prefered_driver": 1,
    "unsafe_for_female_driver":0,
    "unsafe_for_male_driver":0,
    "bording_time":300,
    "constraints" : ["AMB"]
 },
 {
    "id":211,
    "c":"AMB",
    "sdp":"SDP003406",
    "times":"11:00:00",
    "days":"M-T-W-TH-F",
    "name":"HOLLOWAY, HENRY",
    "site":"PACE VISTA",
    "destination":"1840 WEST DR, VISTA, CA 92083",
    "other":"",
    "full_address":"676 MOSAIC CIR, OCEANSIDE, CA 92057",
    "formatted_address":"676 MOSAIC CIR OCEANSIDE, CA 92057, USA",
    "number":"676",
    "street":"MOSAIC CIR",
    "city":"OCEANSIDE",
    "state":"CA",
    "zip":"92057",
    "longitude":-117.28724300183632,
    "latitude": 33.240207421969174, 
    "spoken_languages": ["English"],
    "banned_ethnic_group":[
       
    ],
    "banned_drivers":[
       
    ],
    "prefered_driver": 1,
    "unsafe_for_female_driver":0,
    "unsafe_for_male_driver":0,
    "bording_time":300,
    "constraints" : ["AMB"]
 },
 {
    "id":212,
    "c":"AMB",
    "sdp":"SDP003232",
    "times":"09:00:00",
    "days":"M-T-W-TH-F",
    "name":"TICE, HARRYS",
    "site":"PACE VISTA",
    "destination":"1840 WEST DR, VISTA, CA 92083",
    "other":"",
    "full_address":"14212 TOBIASSON RD, POWAY, CA 92064",
    "formatted_address":"14212 TOBIASSON RD POWAY, CA 92064, USA",
    "number":"14212",
    "street":"TOBIASSON RD",
    "city":"POWAY",
    "state":"CA",
    "zip":"92064",
    "longitude":-117.0601937441701,
    "latitude": 32.973061696555675, 
    "spoken_languages": ["English"],
    "banned_ethnic_group":[
       
    ],
    "banned_drivers":[
       
    ],
    "prefered_driver": 1,
    "unsafe_for_female_driver":0,
    "unsafe_for_male_driver":0,
    "bording_time":300,
    "constraints" : ["AMB"]
 },
 {
    "id":207,
    "c":"AMB",
    "sdp":"SDP002524",
    "times":"09:00:00",
    "days":"M-T-W-TH-F",
    "name":"RAU, JUDITH B",
    "site":"PACE VISTA",
    "destination":"1840 WEST DR, VISTA, CA 92083",
    "other":"",
    "full_address":"1305 LA HAINA ST, RAMONA, CA 92065",
    "formatted_address":"1305 LA HAINA ST, RAMONA CA 92065, USA",
    "number":"1305",
    "street":"LA HAINA ST",
    "city":"RAMONA",
    "state":"CA",
    "zip":"92065",
    "longitude":-116.87164000184048,
    "latitude": 33.03716876430981, 
    "spoken_languages": ["English"],
    "banned_ethnic_group":[
       
    ],
    "banned_drivers":[
       
    ],
    "prefered_driver": 1,
    "unsafe_for_female_driver":0,
    "unsafe_for_male_driver":0,
    "bording_time":300,
    "constraints" : ["AMB"]
 },
 {
    "id":145,
    "c":"AMB",
    "sdp":"SDP283811",
    "times":"11:00:00",
    "days":"M-T-W-TH-F",
    "name":"GUTIERREZ, ANA",
    "site":"SAN YSIDRO PACE",
    "destination":"3364 BEYER BLVD,SUITE 102, SAN YSIDRO, CA, 92173",
    "other":"",
    "full_address":"1045 DRACMA DR, SAN DIEGO, CA 92154",
    "formatted_address":"1045 DRACMA DR SAN DIEGO, CA 92154, USA",
    "number":"1045",
    "street":"DRACMA DR",
    "city":"SAN DIEGO",
    "state":"CA",
    "zip":"92154",
    "longitude": -117.07176493097751,
    "latitude": 32.57807711830962, 
    "spoken_languages": ["English"],
    "banned_ethnic_group":[
       
    ],
    "banned_drivers":[
       
    ],
    "prefered_driver": 1,
    "unsafe_for_female_driver":0,
    "unsafe_for_male_driver":0,
    "bording_time":300,
    "constraints" : ["AMB"]
 }









]